plz,name,lat,long,ev_count,population,area
58099,Hagen,51.37133519,7.53261950409,4,26761,16.296843
44534,Lünen,51.6314934273,7.51267420753,3,29426,21.123661
51645,Gummersbach,50.9989729573,7.56183918288,4,18692,27.014341
26489,Ochtersum,53.6102778485,7.52541360016,0,928,10.625546
44267,Dortmund,51.4579490964,7.52426319952,1,15519,10.954175
66851,"Mittelbrunn, Queidersbach u.a.",49.3973795092,7.49640381,0,9534,61.452192
55566,Sobernheim,49.7805490905,7.62330184717,7,8468,83.182826
52531,Übach-Palenberg,50.9268852653,6.10426703799,3,24238,26.126702
47626,Kevelaer-Winnekendonk,51.5936190016,6.31517817659,0,4200,25.408388
41748,Viersen,51.2466575165,6.40643589665,2,17713,22.717167
47804,Krefeld,51.3129003096,6.52359304768,4,18063,13.907906
47829,Krefeld,51.3699253244,6.64128889365,0,23211,14.237136
54533,"Bettenfeld, Niederöfflingen u.a.",50.0534041738,6.71425485118,5,4806,117.431153
66763,Dillingen/Saar,49.3660120769,6.73228898116,7,20259,21.821532
46045,Oberhausen,51.4670366982,6.85933332244,6,28290,3.961001
50767,Köln,51.0028292786,6.8853573964,1,16821,5.882485
54426,Malborn,49.7674851769,7.02571986821,0,4599,98.066363
53518,"Adenau, Kottenborn u.a.",50.3800206489,6.94413500969,5,4706,58.842124
66128,Saarbrücken,49.2290488579,6.9152420597,1,6295,8.527151
50677,Köln,50.9214860552,6.95048094656,3,12923,1.063562
45147,Essen,51.4396607191,6.98399279962,13,23350,2.62508
42489,Wülfrath,51.2913878424,7.03583542666,3,21204,32.592109
45897,Gelsenkirchen,51.5659188083,7.07287261005,3,20107,9.078502
51375,Leverkusen,51.031563663,7.05802657756,0,25396,10.441008
54411,"Deuselbach, Hermeskeil, Rorodt",49.657258842,6.9472897871,8,6144,38.54887
67678,Mehlingen,49.4887896826,7.84754016216,0,3785,17.852482
56424,"Mogendorf, Ebernhahn, Staudt u.a.",50.4906112758,7.74937514198,1,4919,15.37706
67727,Lohnsfeld,49.5471186675,7.84854817406,0,935,6.87009
79110,Freiburg im Breisgau,48.019882229,7.81051644532,5,22057,6.150854
49632,Essen (Oldenburg),52.7265922455,7.96247558165,3,8314,98.102227
56368,Katzenelnbogen,50.2703577811,7.95476077386,0,4207,32.29837
79713,Bad Säckingen,47.5681040201,7.95656651646,7,16221,25.391377
67808,"Steinbach, Weitersweiler, Bennhausen, Mörsfeld, Würzweiler, Ruppertsecken u.a.",49.7392165098,7.92962984295,0,4513,58.815783
79868,Feldberg,47.8648725037,8.06750575944,3,1745,25.133608
67316,Carlsberg,49.4902037584,8.03243874894,0,3466,15.713977
55237,Flonheim,49.7872787069,8.04658568106,0,4092,24.087408
65558,Burgschwalbach,50.3945366259,8.00784565608,1,10182,76.560467
79263,Simonswald,48.0875195476,8.08867228736,1,2999,71.875784
79874,Breitnau,47.9397590364,8.08697000393,2,1647,40.352047
76872,Steinweiler,49.0925385284,8.13745008229,0,6960,41.293822
59302,Oelde,51.8182119714,8.1668408858,12,29029,102.703949
42653,Solingen,51.2017443037,7.08175360777,5,17986,11.666973
56823,Büchel,50.1800839137,7.08333753335,0,1144,12.695418
53474,Bad Neuenahr-Ahrweiler,50.5296751668,7.12512246982,5,26862,63.482931
53115,Bonn,50.7233508885,7.08954526484,4,17643,3.592451
56858,Peterswald-Löffelscheid u.a.,50.068606037,7.27413860105,1,5048,100.050397
56745,Bell,50.3971502477,7.1716294318,1,5150,35.760995
45529,Hattingen,51.3693308667,7.16259137038,2,16883,37.492656
42929,Wermelskirchen,51.1118317587,7.21794559818,8,35018,74.768952
44791,Bochum,51.49006103,7.25106288088,5,15551,7.660354
42899,Remscheid,51.2089697534,7.23447635144,2,14330,10.210385
55483,Dickenschied u.a.,49.8713629135,7.44609196267,0,3874,61.391192
26624,Südbrookmerland,53.4724916189,7.33338157181,2,18637,96.031431
59425,Unna,51.5533827819,7.69804881495,4,23281,22.128734
79540,Lörrach,47.6012655019,7.6693436595,2,14224,4.628819
57539,Fürthen,50.7498189017,7.65933655219,0,6341,17.527104
56271,Kleinmaischeid,50.4990462794,7.5986119858,0,3834,30.711712
49599,Voltlage,52.4379661655,7.73904560101,2,1801,42.408071
49545,Tecklenburg,52.2232280437,7.80612777288,5,8917,70.416993
56244,"Freilingen, Freirachdorf u.a.",50.6148613829,7.77209217142,1,12836,97.5002
57644,Hattert,50.6520227731,7.76078544493,0,2140,15.162896
67655,Kaiserslautern,49.4405585228,7.76678546071,8,21646,2.948754
67824,Feilbingert,49.7775626575,7.78973530234,0,1635,10.017502
48499,Salzbergen,52.3202590736,7.35273893568,5,7578,53.444756
26810,Westoverledingen,53.1479735876,7.44445131748,2,19845,112.000712
48329,Havixbeck,51.9743367497,7.44290968496,2,11568,53.239803
66894,Bechhofen,49.351381676,7.46385596572,1,6644,57.399203
44227,Dortmund,51.4656134176,7.42157902565,5,17922,19.055495
88147,Achberg,47.6223698241,9.71398197831,0,1683,12.896111
73326,Deggingen,48.6075987258,9.72081605012,2,5283,22.70278
25482,Appen,53.6522754151,9.73716360085,0,4914,20.390455
97980,Bad Mergentheim,49.4546667426,9.77371518501,15,22061,130.038772
36132,Eiterfeld,50.7648178821,9.81468459677,5,7274,89.403239
73333,Gingen an der Fils,48.6574631905,9.77560757987,0,4380,9.987655
30175,Hannover,52.3797186402,9.76663066603,7,6569,3.134878
88454,Hochdorf,48.0251399634,9.79200574879,0,2114,23.778664
30625,Hannover,52.3765401703,9.80133256123,14,17576,8.863372
97270,"Kist, Irtenberger Wald",49.7332883486,9.82275179604,0,2472,14.216469
97250,Erlabrunn,49.8585193506,9.84034143795,1,1680,4.012271
25451,Quickborn,53.7335122634,9.90382299743,10,19730,42.729787
97256,Geroldshausen,49.6816347364,9.88830689176,0,1268,10.440429
29313,Hambühren,52.621845223,9.94167380465,5,10075,56.817496
22609,Hamburg,53.557971354,9.84981238837,9,11700,5.72247
31195,Lamspringe,51.9738193722,9.99825892273,1,5876,70.492464
97705,Burkardroth,50.2807084454,9.97221121276,1,7721,80.317565
36208,Wildeck,50.9539820599,9.9819273906,0,5034,37.851585
88167,Röthenbach (Allgäu),47.6252985562,10.0085477141,5,7772,102.1753
89195,Staig,48.3007969217,9.98568340159,3,3098,17.546658
73457,Essingen,48.7933720081,10.0215918167,0,6347,55.553899
20354,Hamburg,53.5587650568,9.99411644357,11,2273,1.285965
97288,Theilheim,49.7595777964,10.0331107686,0,2374,9.681774
89165,Dietenheim,48.2237869668,10.0512768492,1,6565,18.758712
97708,Bad Bocklet,50.2733678051,10.0692834444,1,4486,37.846133
22089,Hamburg,53.5678767874,10.0479947022,7,19734,1.775989
97241,"Bergtheim, Oberpleichfeld",49.8980095091,10.0867444815,1,4581,35.207672
37191,Katlenburg-Lindau,51.6650688207,10.0974073376,2,7340,71.679984
97252,Frickenhausen,49.6791351962,10.1020939073,0,1287,10.432442
22043,Hamburg,53.569210499,10.104855809,7,20460,5.424448
87544,Blaichach,47.5024675553,10.1858423565,1,5700,50.135264
23866,Nahe,53.7968652659,10.1314860257,1,2354,11.250854
99830,Treffurt/Ifta,51.1088879943,10.2109616112,0,6550,72.951569
97509,Kolitzheim,49.9300563176,10.2528920751,2,5409,59.106853
38277,Heere,52.0565356989,10.2380636537,0,1203,14.74262
89347,Bubesheim,48.4268524319,10.2477688289,0,1441,7.77393
87743,Egg an der Günz,48.08858708,10.2725914623,0,1159,20.719188
99826,Mihla,51.0789033278,10.3445586234,0,3283,55.345771
37412,"Herzberg, Elbingerode, Hörden",51.7001542179,10.4776969856,3,15006,95.906117
97453,Schonungen,50.0773174085,10.3488453927,6,7727,80.887028
97633,Sulzfeld,50.3115900368,10.444054335,5,9067,160.775202
91602,Dürrwangen,49.10270139,10.3792392277,0,2567,23.022704
22952,Lütjensee,53.6525726927,10.3717348405,0,3298,13.93553
21335,Lüneburg,53.2183616956,10.3867639579,16,24371,21.043916
29581,Gerdau,52.9635498641,10.4228022494,0,1524,36.876382
91477,Markt Bibart,49.6995055107,10.3622781734,2,1854,30.00191
97497,Dingolshausen,49.910437908,10.3977636336,1,1290,10.213684
87757,Kirchheim in Schwaben,48.1815823318,10.4618948452,0,2547,31.949817
21365,Adendorf,53.2864400321,10.4547087074,3,10126,16.086176
23619,Zarpen,53.8778543173,10.5239472115,2,5647,56.652569
38642,Goslar,51.9258073606,10.4384377313,0,16844,6.756291
98530,"Suhl, Marisfeld, Rohr u.a.",50.5749360972,10.5687523465,1,3138,62.586772
89368,Winterbach,48.4659570533,10.4988554099,0,795,14.840224
99713,Ebeleben,51.304798628,10.6677618575,1,7166,188.855927
29392,Wesendorf,52.587166918,10.5362392833,0,5009,31.392461
38124,Braunschweig,52.2138007466,10.5248685807,3,20630,15.846476
64521,Groß-Gerau,49.9108991982,8.47697404584,6,23766,54.234548
64569,Nauheim,49.9514026977,8.46851269061,3,9830,13.659968
76227,Karlsruhe,48.9926433511,8.47444295376,9,29194,18.493114
76676,Graben-Neudorf,49.1550008423,8.47937806756,0,11556,28.704927
33142,Büren,51.5550300986,8.58448998088,10,21749,170.860601
35088,Battenberg,51.0203546571,8.60394438485,0,5480,60.396014
65929,Frankfurt am Main,50.0998393152,8.53474536203,5,28053,13.419829
27580,Bremerhaven,53.5892844363,8.56383114629,2,12452,11.851736
32051,Herford,52.1070347312,8.6157346568,6,17891,28.948108
35452,Heuchelheim,50.5877904483,8.61822281117,1,7260,10.520414
60528,Frankfurt am Main,50.0688726995,8.64050283772,4,22825,18.261739
61239,Ober-Mörlen,50.3618378174,8.66831460507,4,5762,37.550322
63225,Langen,49.9922467403,8.66165906513,6,34924,29.053253
35440,Linden,50.5324270057,8.66844903378,3,12095,22.783583
32052,Herford,52.0893677372,8.6601794427,7,20781,19.013089
64291,Darmstadt,49.9274023808,8.67371562506,4,22655,32.723173
64686,Lautertal (Odenwald),49.7164264177,8.70954682417,2,7155,30.616082
78532,Tuttlingen,47.9775344944,8.80925039354,9,33252,90.365038
32479,Hille,52.3320565668,8.76971047603,1,16106,102.862483
75175,Pforzheim,48.8844815713,8.72358241322,5,18837,8.852514
60385,Frankfurt am Main,50.1247894857,8.71378748965,2,33049,2.584952
72369,Zimmern unter der Burg,48.2208616136,8.72167347704,0,474,5.04327
35460,Staufenberg,50.6627333841,8.76366047619,1,8117,28.237529
35423,Lich,50.5105172261,8.83040483049,6,13117,76.567184
63322,Rödermark,49.9736108603,8.80674535773,4,26272,30.151794
35091,Cölbe,50.8747651597,8.81827874966,2,6738,27.123327
35085,Ebsdorfergrund,50.7301799292,8.83924541748,2,8883,71.613039
75233,Tiefenbronn,48.8158403586,8.8105816085,2,5077,14.772716
64839,Münster,49.9268251218,8.84516613203,6,14023,20.805201
32469,Petershagen,52.3999185054,8.99689762974,4,26248,211.814554
63477,Maintal,50.1534540611,8.83554140898,13,35827,32.304296
25920,"Risum-Lindholm, Stedesand",54.7493738197,8.86721160038,1,4510,49.979086
71297,Mönsheim,48.8584224191,8.86820213869,2,2644,16.783452
74927,Eschelbronn,49.3189030643,8.86247328861,2,2559,8.225305
78337,Öhningen,47.6785287581,8.90233411527,1,3509,28.15724
72362,Nusplingen,48.1252278717,8.90650362314,2,1840,20.728833
64756,Mossautal,49.6446594067,8.91582480006,0,2579,48.467281
78359,Orsingen-Nenzingen,47.8398495757,8.93365321477,1,3195,22.233266
34474,Diemelstadt,51.4747756566,8.99501758378,3,5395,82.686124
25792,Neuenkirchen,54.2386087222,8.99858878963,0,1149,29.900411
74858,Aglasterhausen,49.362540882,8.99266947414,0,4836,22.789051
25926,Ladelund,54.845587599,9.02636118396,0,2234,71.495743
34549,Edertal,51.1634524083,9.07549691088,5,6570,115.73703
72458,Albstadt,48.1986061781,9.0271089656,6,18191,36.61463
69437,Neckargerach,49.3985513226,9.06951262698,0,2346,15.270111
63741,Aschaffenburg,49.9803769138,9.11704621909,9,25076,26.545192
70565,Stuttgart,48.7163494267,9.12384207059,9,20257,7.769651
74081,Heilbronn,49.112857299,9.18433132607,1,17665,15.028257
63834,Sulzbach am Main,49.9151511611,9.1905544394,0,6929,19.931854
27313,Dörverden,52.842612917,9.26821299314,2,9130,83.437879
71638,Ludwigsburg,48.8877876655,9.20797821353,15,19498,4.995731
25850,"Behrendorf, Bondelum",54.5604311031,9.24861135666,0,780,24.495353
72766,Reutlingen,48.4796838164,9.22027038661,11,17479,18.964858
63863,Eschau,49.830573813,9.28865545985,0,3837,38.056647
25721,Eggstedt,54.0567621624,9.2627265216,0,780,12.579539
72655,Altdorf,48.5927105417,9.27611403195,0,1477,3.282013
25576,Brokdorf,53.8740136217,9.3210277411,0,1014,13.637779
34626,Neukirchen (Knüll),50.876850645,9.36103372909,5,7265,66.293046
71394,Kernen im Remstal,48.7915979789,9.32946138291,4,14753,15.033555
25557,"Hanerau-Hademarschen, Seefeld u.a.",54.1149579193,9.40726765181,0,5900,97.417633
71546,Aspach,48.9901141346,9.39042401577,2,8013,35.186661
25599,Wewelsfleth,53.8477190301,9.38824012937,0,1508,17.46641
25799,Wrohm,54.2161772223,9.40257106177,0,692,12.371547
97877,Wertheim,49.7431631426,9.52227761781,5,22576,138.515916
73265,Dettingen unter Teck,48.6116946271,9.44369582236,0,5705,15.138031
74613,Öhringen,49.210470331,9.50162487498,11,22513,67.767403
23999,Insel Poel,53.9934843928,11.4362474032,1,2566,34.816438
91241,Kirchensittenbach,49.5705696696,11.4243796539,0,2053,43.21013
80999,München,48.1909245518,11.4518766117,5,14831,8.413683
95503,Hummeltal,49.8846870984,11.4993273673,0,2386,18.41167
19065,Pinnow,53.6200921378,11.5511750932,0,3478,45.993124
81373,München,48.1228899438,11.5305612528,8,24275,2.391261
81369,München,48.1107528711,11.5310670275,5,23294,2.034644
7778,Neuengönna u.a.,50.9846446148,11.7157814008,0,2064,42.193128
92281,Königstein,49.6105704912,11.6411385256,1,1753,35.17928
80805,München,48.1740152523,11.6068080416,9,17606,5.607253
7389,Ranis,50.6374776782,11.5697468103,0,3590,65.623513
95497,Goldkronach,50.0061853814,11.7029959535,0,3610,36.487552
7907,Schleiz,50.5915353357,11.8093884014,0,12574,189.641279
83684,Tegernsee,47.7146339613,11.7640529645,6,3658,22.656563
39114,Magdeburg,52.1047038739,11.6988269145,6,20577,60.533596
91809,Wellheim,48.8189599469,11.0996587494,2,2664,33.725065
82278,Althegnenberg,48.2259196134,11.070433653,0,1796,16.070731
86697,Oberhausen,48.7081666692,11.1098054281,0,2607,31.970712
82399,Raisting,47.9044629379,11.1059475156,0,2185,21.897874
91090,Effeltrich,49.6629679596,11.1079113073,1,2639,11.925582
96523,Steinach,50.4335641842,11.1610181021,2,4192,25.868893
82294,Oberschweinbach,48.2405231738,11.1466548492,0,1586,7.268264
96275,Marktzeuln,50.1651383604,11.1776916856,0,1612,6.789363
85250,Altomünster,48.3896817928,11.2378633044,1,7345,75.692374
90584,Allersberg,49.2430751906,11.2374410712,4,8032,59.764455
82432,Walchensee,47.5931516225,11.3214907458,0,505,36.34663
82393,Iffeldorf,47.786885878,11.3230300875,0,2489,27.509671
19077,Rastow,53.4726994625,11.4170741051,0,3923,105.807254
6333,"Hettstedt, Endorf",51.6457949104,11.4972459688,0,15752,47.240267
96364,Marktrodach,50.2455373198,11.4126038255,1,3850,33.312976
89440,Lutzingen,48.6698617371,10.5391505981,0,970,24.937529
86441,Zusmarshausen,48.4060997439,10.5963372628,2,6078,68.612282
29396,Schönewörde,52.6196289711,10.7098674424,0,912,17.750515
91747,Westheim,49.0023898561,10.6783052709,0,1178,28.311099
29599,Weste,53.0529676352,10.6981447827,0,1015,25.428804
86845,Großaitingen,48.2313345955,10.7468331964,2,4908,39.151597
86459,Gessertshausen,48.3034678571,10.7146344692,0,4105,41.315745
23552,Lübeck,53.8669616001,10.6880618486,5,13074,1.64127
86853,Langerringen,48.1259550545,10.7486057923,3,3742,42.022311
99955,Bad Tennstedt,51.1653643042,10.8291938549,2,8812,134.263605
38440,Wolfsburg,52.4257933182,10.7675931515,26,25285,15.618481
29473,Göhrde,53.1191767741,10.8820357702,0,646,93.651077
91734,Mitteleschenbach,49.2120973192,10.8025623064,1,1580,10.547346
86899,Landsberg a. Lech,48.0348345064,10.861057729,14,27351,57.874915
96158,Frensdorf,49.8106543872,10.8703215041,1,4878,43.945791
91793,Alesheim,49.0391218714,10.8687479544,0,985,20.486874
86971,Peiting,47.8010674208,10.9352322925,1,11404,74.96098
86946,Vilgertshofen,47.9585186832,10.9168243645,0,2498,27.097066
86641,Rain,48.6675005474,10.9549294746,0,8366,80.359649
38350,Helmstedt,52.23591722,10.9959008227,8,23258,67.018187
39393,"Hötensleben, Völpke, Ottleben u.a.",52.0836821892,11.0779446039,1,9293,162.305082
96110,Scheßlitz,49.980777266,11.0501720062,4,7138,94.843314
96487,Dörfles-Esbach,50.2870085789,10.9991551905,0,3685,3.782384
99102,"Rockhausen, Klettbach",50.9111676327,11.1443737869,0,1309,15.355994
59872,Meschede,51.3381437954,8.2476652835,8,30782,218.279017
67483,Edesheim,49.289358008,8.01298498182,3,3153,17.90619
76863,Herxheim,49.1449431281,8.21675490008,3,10848,32.66189
65197,Wiesbaden,50.0822065553,8.20775522949,3,29776,4.201899
35745,Herborn,50.6786365984,8.28596764677,5,20648,63.95351
67596,Dittelsheim-Heßloch,49.7477807899,8.24426807532,0,2433,16.691833
65193,Wiesbaden,50.1104856163,8.23603574424,4,15547,15.990337
67246,Dirmstein,49.5726645718,8.25133499813,0,2966,14.666278
67377,Gommersheim,49.2977157799,8.03334548427,0,1467,11.329589
55294,Bodenheim,49.9290047153,8.30802571815,3,7057,13.421903
78730,Lauterbach,48.2359331335,8.32285921465,3,2967,19.942243
67368,Westheim (Pfalz),49.239331853,8.32324938123,1,1749,7.121428
67360,Lingenfeld,49.2446853358,8.35792371352,3,5551,15.190437
33330,Gütersloh,51.8974058696,8.37691158286,12,25855,8.955972
33824,Werther (Westf.),52.0836832867,8.41764831929,1,11387,35.369611
68647,Biblis,49.6881083609,8.42567555123,2,8862,39.942895
35236,Breidenbach,50.8778043575,8.43462216375,0,6983,46.026952
35606,Solms,50.5503066115,8.4153258233,1,13464,34.099569
25582,Hohenaspe,54.0061667193,9.52206515049,0,3100,49.157797
34127,Kassel,51.3357111169,9.48956175619,2,22408,7.640019
88273,Fronreute,47.8677555911,9.55468195062,1,4407,46.070111
34233,"Kassel, Fuldatal",51.3794420947,9.53443934896,1,11870,32.205239
24986,Mittelangeln,54.6782952542,9.59334569145,2,4918,44.890502
25491,Hetlingen,53.6101558993,9.61963128762,0,1316,18.593205
24787,Fockbek,54.3088311086,9.5857813921,3,6351,27.465176
74679,Weißbach,49.3127372029,9.60081145576,0,2084,12.755933
73547,Lorch,48.7972935505,9.67786000712,4,10627,34.429896
73092,Heiningen,48.6605671825,9.65623435478,0,5092,12.360812
19339,Plattenburg,52.9832988515,12.0462212952,0,3643,201.98863
85408,Gammelsdorf,48.5554748633,11.9367542053,0,1382,21.635577
83104,Tuntenhausen,47.9469676043,12.0147821008,1,6891,79.346697
84174,Eching,48.4864347798,12.0492929753,1,3737,30.173605
84034,Landshut,48.5281814576,12.090342363,3,21661,21.195358
83088,Kiefersfelden,47.6259801746,12.1270245701,2,6446,37.724772
83126,Flintsbach a. Inn,47.7044178838,12.1047140721,1,2860,31.309972
92637,"Weiden in der OPf., Theisseil",49.6747055043,12.1710697569,12,42982,92.121631
93107,Thalmassing,48.9074204297,12.1411199342,1,3257,37.167805
93057,Regensburg,49.051641659,12.1185446828,1,16883,10.720572
6862,Dessau-Roßlau,51.9186695238,12.2606816059,0,13561,76.358758
7980,Berga/Elster,50.7047072349,12.1107169169,0,3658,46.291791
92718,Schirmitz,49.6498244582,12.1765598,0,2033,4.942877
6794,Sandersdorf-Brehna,51.5976377478,12.1932556397,0,595,15.181679
83083,Riedering,47.8395248779,12.2375450619,2,5446,38.105785
8233,Treuen,50.5397629239,12.3052014152,0,8436,43.873978
4463,Großpösna,51.2492557508,12.4741795872,0,5338,41.466681
83246,Unterwössen,47.7200519571,12.4713392678,4,3450,40.233505
83361,Kienberg,48.0402381984,12.4675062156,1,1375,22.830233
16868,Wusterhausen,52.9095402472,12.4716727164,8,3329,36.173304
83242,Reit im Winkl,47.6676438805,12.5210123436,5,2372,71.925529
92539,Schönsee,49.5129591532,12.5435869377,0,2591,50.352278
83301,Traunreut,47.9556305059,12.5824085881,2,15125,22.942382
94437,Mamming,48.6423880898,12.6024889929,1,2886,41.527176
84568,Pleiskirchen,48.3169129664,12.6288198467,1,2388,52.579277
6889,Wittenberg,51.9515948018,12.6638960651,0,6259,108.157075
8321,Zschorlau,50.5505339804,12.6450669843,0,5598,22.262879
14822,"Brück, Borkheide u.a.",52.2007261092,12.7658038972,3,9764,232.749807
83329,Waging a. See,47.937250329,12.7304498437,3,6463,58.580619
94342,Straßkirchen,48.836921007,12.7198101669,1,4403,54.295757
18374,Zingst a. Darß,54.4305103102,12.7822488491,4,3120,50.092596
84375,Kirchdorf a. Inn,48.2391717628,12.95769511,2,5241,31.794661
84347,Pfarrkirchen,48.4414385251,12.9576190625,6,11696,52.390594
9125,Chemnitz,50.7874696061,12.9392162663,0,9118,16.455418
9130,Chemnitz,50.8374859664,12.949840636,0,21085,3.616943
83487,Marktschellenberg,47.6830853984,13.0441954864,0,1721,17.62737
9573,"Leubsdorf, Gornau, Augustusburg",50.8046842337,13.1176043058,0,9330,66.423953
94572,Schöfweg,48.8354676116,13.2232010575,0,1287,19.110208
94532,Außernzell,48.7332165713,13.2214866782,0,1395,24.159847
17258,Feldberger Seenlandschaft,53.3323754135,13.4060476082,2,4587,201.343952
94536,Eppenschlag,48.8932316823,13.3035628121,0,1014,17.074924
10627,Berlin Charlottenburg,52.5079872168,13.302994626,4,11179,0.721358
13439,Berlin Märkisches Viertel,52.598534558,13.3587178838,2,19016,2.185255
13158,Berlin Rosenthal,52.593176538,13.3834467728,0,17234,6.922705
94034,Passau,48.5927756443,13.4396107882,1,14349,30.458693
18581,Putbus,54.3230530406,13.5341535961,1,4386,65.892855
13189,Berlin Pankow,52.5641769118,13.4218545961,4,26019,2.496854
12347,Berlin Britz,52.4508786548,13.4281564278,3,17699,3.996511
94065,Waldkirchen,48.735032619,13.603877888,2,10290,80.084251
94130,Obernzell,48.5732632242,13.6141909649,0,3729,18.217665
12559,Berlin Köpenick,52.4156274361,13.6619191222,0,17643,37.685222
17337,"Uckerland, Groß Luckow, Schönhausen",53.4543273912,13.7869695288,1,3443,195.96791
15712,Königs Wusterhausen,52.293846086,13.6997026289,0,6987,28.617831
15537,Erkner,52.4140931295,13.8659990769,7,22085,159.068313
1983,Großräschen,51.5937864151,13.9872039562,0,9382,81.115772
16303,Schwedt,53.0932468448,14.2590311293,25,31833,205.992664
16306,"Biesendahlshof, Berkholz-Meyenburg",53.1947412812,14.1656549471,0,6316,231.489015
15299,Müllrose,52.2041687427,14.4115024366,0,5896,128.123363
2899,"Ostritz, Schönau-Berzdorf",51.0387487195,14.906575637,0,4107,51.169221
24893,Taarstedt,54.571412684,9.69083242949,1,906,14.192912
25355,Barmstedt,53.8019749431,9.77787632627,2,12731,76.63091
30171,Hannover,52.3658090054,9.75513105754,6,16131,1.12255
30659,Hannover,52.4171591155,9.83563810211,5,16020,11.385933
89160,Dornstadt,48.4846689321,9.89117734936,11,8421,59.203432
29303,"Bergen, Lohheide u.a.",52.7946065729,9.96063522108,2,13829,264.280336
24363,Holtsee,54.4011338015,9.86592194858,0,1298,21.691119
73111,Lauterstein,48.72012757,9.89112899909,1,2620,22.438416
36217,Ronshausen,50.9383118569,9.87782155408,1,2442,40.535611
25474,Ellerbek,53.6769166105,9.90627432482,0,11837,32.151594
29646,Bispingen,53.1169799106,9.99403287662,10,6321,128.730145
88171,Weiler-Simmerberg,47.576735993,9.91671717167,1,6034,31.3128
89081,Ulm,48.4385219587,9.97472206567,14,16188,55.890298
36214,Nentershausen,51.0085170605,9.94356922961,0,2848,56.554323
73560,Böbingen an der Rems,48.8174792916,9.92036371542,1,4575,12.221671
36115,"Hilders, Ehrenberg",50.5417950909,9.98682340606,1,7239,111.203147
73579,Schechingen,48.8739840256,9.9272680834,0,2363,11.83412
36266,Heringen,50.8900824976,9.97539674191,1,7575,60.106777
74592,Kirchberg an der Jagst,49.2030199916,9.97713865964,3,4104,40.927253
88477,Schwendi,48.1906210384,9.97841853082,1,6233,49.251852
22765,Hamburg,53.5555465619,9.93495942616,21,24286,2.195108
21109,Hamburg,53.4912330497,10.0284686875,5,26277,19.357172
88317,Aichstetten,47.8942030219,10.0605407728,4,2701,33.772127
31174,Schellerten,52.1701243147,10.0954635066,3,8259,80.120598
88450,Berkheim,48.046804731,10.069528638,3,2646,25.001584
24643,Struvenhütten,53.8665454058,10.0620834159,0,1061,12.929925
97650,Fladungen,50.5288079773,10.1415363932,0,2214,50.430858
73431,Aalen,48.8249355702,10.0907661981,6,14512,15.224625
29336,Nienhagen,52.5426456049,10.099997052,0,6400,17.601458
21435,Stelle,53.3807783943,10.1096944343,1,10868,38.679195
22179,Hamburg,53.6061908294,10.0837222474,1,18537,3.759424
22397,Hamburg,53.7039076767,10.1251144905,6,16798,31.971441
97258,Ippesheim,49.5849013626,10.1587777549,1,3385,82.652774
97490,Poppenhausen,50.1029010394,10.1453290098,2,4194,39.029541
89542,Herbrechtingen,48.5662855261,10.1545828918,4,12804,57.268694
97714,Oerlenbach,50.1492909245,10.1351863143,0,4992,33.439359
97702,Münnerstadt,50.2524333894,10.244756922,3,7953,93.056057
91631,Wettringen,49.2600786745,10.1663033556,1,956,21.299279
74594,Kreßberg,49.1358840329,10.1911993887,2,3757,48.394499
87474,Buchenberg,47.7074512749,10.1951727493,3,3919,58.151806
87509,Immenstadt im Allgäu,47.5742299337,10.1952485944,3,13922,81.278415
31228,Peine,52.3513744599,10.2125648592,1,16574,34.790251
91610,Insingen,49.3127396909,10.1625879439,3,1124,21.243976
91620,Ohrenbach,49.4697617912,10.2137066728,3,628,22.711617
97618,Hohenroth,50.3179202003,10.1310071076,3,13591,136.703591
97355,Kleinlangheim,49.7577023505,10.3383705168,7,5081,72.299258
87749,Hawangen,47.9729785187,10.2679865612,0,1281,14.531844
22962,Siek,53.6325875782,10.2834260214,0,2234,12.445604
21409,Embsen,53.1773761776,10.3301222111,1,2676,22.910777
38259,Salzgitter,52.0607515963,10.3896574757,13,26137,64.50858
86491,Ebershausen,48.2076685802,10.3158799099,0,598,11.169824
87496,Untrasried,47.8454873214,10.3672829056,0,1535,25.785576
87466,Oy-Mittelberg,47.6485627313,10.4391369657,2,4404,60.094065
21406,"Melbeck, Barnstedt",53.1564390037,10.3861978857,1,4152,35.725051
23821,Rohlstorf,53.9621948386,10.398341773,0,1203,19.626818
23815,Geschendorf,53.9223352963,10.4632003588,0,1297,18.521986
86470,Thannhausen,48.2774390574,10.4787883358,1,5941,20.070924
99755,Ellrich,51.5693416583,10.6412856165,3,8099,130.228875
29576,Barum,53.0445800574,10.5268984149,0,816,22.367043
91726,Gerolfingen,49.0489792003,10.5111108673,1,997,12.636855
91099,Poxdorf,49.6674156297,11.0657933163,0,1513,5.1487
82293,Mittelstetten,48.2547709742,11.0993177508,0,1651,18.621319
6526,Sangerhausen,51.5180126937,11.2505420059,0,28932,208.463294
91077,Neunkirchen a. Brand,49.6219724151,11.1402222045,6,12589,50.238097
90530,Wendelstein,49.3458640813,11.1652278082,8,15676,63.575521
86633,Neuburg an der Donau,48.7363658232,11.1948978348,6,27766,81.265441
91338,Igensdorf,49.61607284,11.2252960204,1,4858,28.90582
91347,Aufseß,49.8942966372,11.2411922196,0,1338,29.417415
82395,Obersöchering,47.7460957811,11.2315966916,2,1486,24.309668
86576,Schiltberg,48.4558701148,11.24431677,0,1861,29.788925
39638,Gardelegen,52.5050900834,11.418191717,5,20184,535.47087
85114,Buxheim,48.814328594,11.2864358189,0,3486,22.492648
82387,Antdorf,47.7566719657,11.2999312247,0,1188,22.348041
82349,Pentenried,48.081307271,11.33651011,0,816,4.379193
92360,Mühlhausen,49.1805187477,11.4298708777,5,4680,36.842209
19059,Schwerin,53.6376268134,11.3908064226,1,10843,4.224314
39448,Börde-Hakel,51.9532693205,11.3910883522,0,3306,38.910327
85120,Hepberg,48.8279101147,11.4604867712,4,2462,4.174139
19086,Plate,53.5555540532,11.4979397335,0,3377,21.140677
18230,"Rerik, Bastorf, Biendorf",54.0826840653,11.6773676146,1,4450,98.623045
92358,Seubersdorf i.d. OPf.,49.1552129705,11.6174936419,0,4992,68.251627
85088,Vohburg a.d. Donau,48.7695049197,11.6125015089,0,7269,45.10331
39122,Magdeburg,52.062565034,11.6526121353,0,11476,26.349286
85395,Attenkirchen,48.4970769325,11.7246897132,1,4936,42.17869
85635,Höhenkirchen-Siegertsbrunn,48.0202384334,11.7385217198,2,9850,23.72159
85622,Feldkirchen,48.1428176942,11.7498443577,2,6899,11.76713
39288,Burg,52.2845737121,11.8563469152,7,23188,165.412484
7922,Tanna,50.4907666063,11.8603158276,0,3813,87.852635
84106,Volkenschwand,48.6091327958,11.8628851657,0,1678,29.234805
85570,Markt Schwaben,48.2013353073,11.8732913311,2,13988,21.194828
6124,Halle/ Saale,51.4696299462,11.9309691011,0,21269,6.980171
93188,Pielenhofen,49.0774561772,11.976906764,0,1407,14.618055
92421,Schwandorf,49.3171184809,12.0833676539,11,27565,130.500117
95679,Waldershof,49.9521471988,12.0708333578,1,4434,60.42184
7548,Gera,50.8770213999,12.0393413319,0,18556,30.816358
83059,Kolbermoor,47.8430322464,12.0476068217,4,17677,19.913787
83024,Rosenheim,47.8688946893,12.1080324302,0,16249,9.466746
95701,Pechbrunn,49.969269895,12.1701845453,0,1397,26.437005
92721,Störnstein,49.7429355096,12.2031307752,0,1449,10.974628
8491,"Netzschkau, Limbach",50.596734796,12.2443231275,0,5718,26.13997
6868,Coswig (Anhalt),51.9869358792,12.3634429829,0,2129,85.049409
4209,Leipzig,51.3193213387,12.2946980348,0,18835,2.346592
83559,Gars a. Inn,48.1543326687,12.3326822853,0,420,7.390314
93109,Wiesent,49.0278607738,12.3697024961,1,2505,26.800099
4356,Leipzig,51.4187554428,12.4333590841,0,2286,20.610712
4357,Leipzig,51.3787358712,12.4105881165,0,14336,5.094982
6901,Kemberg,51.7812980581,12.6226084549,1,10641,237.256581
92726,Waidhaus,49.6512455095,12.4925256797,0,2302,37.320947
94330,Aiterhofen,48.8417767965,12.628185829,5,5668,64.804908
83365,Nußdorf,47.9107070351,12.5944611783,2,2444,16.146845
94350,Falkenfels,49.0035243834,12.5910958226,0,1014,11.515212
93494,Waffenbrunn,49.2849920952,12.6671234741,0,2018,25.154035
17248,Rechlin,53.3295680555,12.7621712274,0,2711,122.782368
94353,Haibach,49.0268201557,12.7317624326,2,2207,32.34136
8294,Lößnitz,50.6252662033,12.7484235573,0,9386,30.476425
93466,Chamerau,49.1964424283,12.7694991144,0,2621,23.453263
84329,Wurmannsquick,48.3557511892,12.8119232804,0,3743,49.329188
94424,Arnstorf,48.555481729,12.8216357222,3,6190,80.537942
14542,Werder/ Havel,52.383452302,12.8847932188,4,23270,116.865318
16766,Kremmen,52.7864475078,13.0299964372,5,7166,207.961611
94439,Roßbach,48.5818348803,12.9283392767,0,2898,48.144798
14476,Potsdam,52.4065532193,12.9620960574,5,13552,78.139404
9427,Ehrenfriedersdorf,50.6455262794,12.9600206473,0,4937,15.906459
4720,"Döbeln, Großweitzschen u.a.",51.1417757721,13.1261239927,0,28919,154.646801
4895,Falkenberg/ Elster,51.5613761148,13.2320096953,0,8588,151.013754
9575,Eppendorf,50.7962134484,13.2544309459,0,4492,33.622034
13503,Berlin Tegel,52.6121735765,13.2487899105,1,17113,16.803582
94529,Aicha vorm Wald,48.6815973282,13.3097630728,0,2410,20.399773
10559,Berlin Moabit,52.5300972688,13.3499004739,4,14796,1.234713
9627,Bobritzsch,50.8908958648,13.4462159028,0,5996,55.333131
10179,Berlin Mitte,52.5121101309,13.4164080225,12,18664,2.177671
87616,Marktoberdorf,47.7494330799,10.6087080265,16,19224,112.954078
91456,Diespeck,49.5984767856,10.6256183689,0,3586,21.044865
87600,Kaufbeuren,47.8803493572,10.6165048009,13,41590,40.912172
38879,Wernigerode,51.7866033968,10.6276850049,2,597,40.121176
87629,Füssen,47.5832158281,10.6636815271,16,14315,43.571299
86750,Megesheim,48.9377939257,10.6642772727,0,858,12.508801
91732,Merkendorf,49.2030835628,10.6898531852,1,2721,26.117353
38855,"Wernigerode, Nordharz",51.8465495507,10.799561367,14,35411,158.111277
91466,Gerhardshofen,49.6162662765,10.7102307028,0,2492,27.197995
91735,Muhr a. See,49.1605967773,10.71907578,2,2198,10.964179
86420,Diedorf,48.3519297411,10.7632644586,1,9701,33.320114
38444,Wolfsburg,52.3752247592,10.7635175424,7,22244,29.554204
86653,Monheim,48.8331563391,10.8715344488,0,5713,94.709664
86675,Buchdorf,48.7834456224,10.8417686308,0,1649,16.691003
91074,Herzogenaurach,49.5706232199,10.8787208544,15,22222,47.643678
19246,Zarrentin,53.552000388,10.9318395839,8,6262,145.829713
99192,"Nesse-Apfelstädt, Nottleben",50.9309068168,10.8914936342,1,6486,48.000852
99707,Kyffhäuserland,51.3662644022,11.0094190356,1,4281,128.580195
39646,Oebisfelde,52.4499239112,11.0214508951,3,6832,94.45362
91058,Erlangen,49.5582923425,11.0071101595,8,24636,17.944332
15749,Mittenwalde,52.2489814448,13.5500078148,2,8652,99.751448
12487,Berlin,52.4424705272,13.5047189686,5,18147,6.373295
15757,Halbe,52.0824931411,13.7045054406,0,2213,76.748281
1127,Dresden,51.0913044741,13.7448371608,0,15079,3.21649
94139,Breitenberg,48.6954645504,13.7774948728,0,2157,29.899837
3205,"Calau, Bronkow",51.7305216155,13.9073748863,0,9068,202.684852
15377,"Oberbarnim, Märkische Höhe u.a.",52.5903119224,14.0690871963,1,4389,117.349895
1909,"Großharthau, Frankenthal",51.1080179566,14.0794586905,0,4005,46.847547
2736,"Beiersdorf, Oppach",51.0664692642,14.513702211,0,3785,14.487236
68649,Groß-Rohrheim,49.714630222,8.4779191048,1,3714,19.421709
32289,Rödinghausen,52.2358374973,8.4973079896,1,9908,36.200859
61476,Kronberg im Taunus,50.188734577,8.51605013482,4,17793,18.606948
64572,Büttelborn,49.9112716678,8.53448336597,4,13592,30.320073
68219,Mannheim,49.4313420776,8.531315766,2,22843,16.054539
65824,Schwalbach am Taunus,50.1511379481,8.53261363008,4,14655,6.395626
35444,Biebertal,50.6457516628,8.57599468609,0,10035,43.943695
75217,Birkenfeld,48.8706398904,8.60824760357,3,10194,19.024513
75394,Oberreichenbach,48.7392963453,8.63249399195,3,2772,35.946024
76698,Ubstadt-Weiher,49.1775003074,8.64310220219,6,12777,36.492651
59964,Medebach,51.2078282258,8.67537959102,8,7998,126.011902
60327,Frankfurt am Main,50.100009914,8.64541093978,9,9767,3.233116
28759,Bremen,53.1673356421,8.65365996265,0,10978,4.567804
75177,Pforzheim,48.9120221293,8.70779130673,3,17249,13.27619
27472,Cuxhaven,53.8531829271,8.71023166596,10,12244,10.042142
25899,Niebüll,54.767662708,8.79364429276,10,12393,139.629588
69117,Heidelberg,49.3926279672,8.72523256796,10,11052,14.649721
69118,Heidelberg,49.420251577,8.7579449044,1,13468,24.217853
71131,Jettingen,48.576119075,8.78114689821,1,7462,21.111528
25869,"Habel, Gröde",54.6348869044,8.72427966803,0,14,2.067121
72181,Starzach,48.4306883085,8.81572950919,1,4326,27.806367
72336,Balingen,48.2659139998,8.86240674302,10,33366,90.282712
75417,Mühlacker,48.9435888334,8.8574331314,7,24700,54.239461
64385,Reichelsheim (Odenwald),49.7019520479,8.85682667722,1,8576,58.222624
25761,Büsum,54.1594132662,8.8668342883,13,6743,44.643603
72414,Rangendingen,48.3869435218,8.87607201706,3,5145,21.582302
71154,Nufringen,48.6214013424,8.89688241504,2,5390,10.027957
28327,Bremen,53.0722899331,8.91825743593,2,16987,3.663688
71139,Ehningen,48.6561762128,8.94595091375,3,7820,17.784662
78315,Radolfzell am Bodensee,47.7644094774,8.98319387407,13,29569,58.474589
71735,Eberdingen,48.8835017595,8.96183685714,3,6537,26.20344
64739,Höchst i. Odw.,49.7872729463,8.97675040812,2,9945,30.755938
63538,Großkrotzenburg,50.0853854161,8.97620761032,4,7284,7.441939
74336,Brackenheim,49.0836638888,9.06522296568,3,14968,45.691257
25776,"Sankt Annen, Rehm-Flehde-Bargen",54.3450982691,9.0918096765,1,936,35.84126
71706,Markgröningen,48.9103718944,9.06873808268,3,14392,28.339659
74357,Bönnigheim,49.0337262363,9.0876535276,0,7130,20.119064
70825,Korntal-Münchingen,48.8480549492,9.10229508272,7,18552,20.692688
24994,Medelby,54.8243568545,9.17065906697,0,2298,77.911781
78467,Konstanz,47.6870086703,9.1478984726,8,31068,15.770003
63864,Glattbach,50.0095844115,9.14423191094,0,3350,3.569213
63906,Erlenbach a.Main,49.8069318422,9.17662523778,0,9914,16.235623
21726,Oldendorf,53.5749631361,9.26521169888,0,5138,60.94874
27449,Kutenholz,53.4898832935,9.31515403645,0,4776,67.825002
73730,Esslingen am Neckar,48.7348682159,9.35968422907,5,18366,16.859147
36399,Freiensteinau,50.4384963184,9.39901683248,6,3248,65.771074
63879,"Weibersbrunn, Rohrbrunner Forst",49.9133594933,9.39934667568,3,1970,42.958819
63860,"Rothenbuch, Rothenbucher Forst",49.9640370849,9.39815662926,1,1704,40.349549
88499,Riedlingen,48.166742511,9.4578375276,2,12466,93.436626
71576,Burgstetten,48.9265091913,9.38455296428,1,3419,10.261656
37649,Heinsen,51.8720987063,9.42153908826,0,852,18.669502
36396,Steinau an der Straße,50.3212369345,9.47399789923,6,10598,144.075988
88518,Herbertingen,48.0643918997,9.43537082167,0,4844,38.61097
24872,Groß Rheide,54.4411997631,9.42615288264,0,915,15.370656
34385,Bad Karlshafen,51.6291016043,9.44659353918,3,3599,14.818937
97840,"Hafenlohr, Rothenbuch",49.9016712234,9.5414850722,0,1914,19.249269
52538,"Gangelt, Selfkant",51.0111805789,5.97171616435,2,21390,90.833003
47623,Kevelaer-Mitte,51.579101509,6.23234247174,2,16449,19.479972
47625,Kevelaer-Wetten,51.5616412073,6.29194002831,0,2506,25.258065
53940,Hellenthal,50.4488050405,6.42564938407,2,8272,137.567579
52445,Titz,50.995285261,6.4220053041,1,8299,68.526676
52385,Nideggen,50.676148657,6.48555017842,2,9880,64.990825
54453,Nittel,49.6465391512,6.46279496151,0,2245,16.676259
47445,Moers,51.4908201599,6.6085312813,4,27221,21.611346
40670,Meerbusch,51.2751378364,6.62867132093,9,18370,17.832802
54526,Landscheid,49.9988844077,6.75038485926,0,1979,30.188398
47059,Duisburg,51.4392030874,6.74053276034,1,8510,7.49238
47119,Duisburg,51.4582757698,6.73521729406,3,11309,4.998506
66787,Wadgassen,49.2474380092,6.77702861453,4,17942,25.909843
40225,Düsseldorf,51.1969796492,6.79421381602,2,13238,4.576253
66773,Schwalbach,49.3064650706,6.8327970322,2,17348,27.237685
41541,Dormagen,51.1324833568,6.82998369644,2,9906,18.01823
54516,Wittlich,49.9932200973,6.91295442917,13,18724,56.630684
26571,"Juist, Memmert",53.6764996986,6.97506063354,0,1540,22.935786
66292,Riegelsberg,49.3092453334,6.94180077886,2,14793,14.66486
56767,Uersfeld,50.2548181922,7.00110313902,2,2212,35.656326
45133,Essen,51.4036062927,6.98414370702,12,14458,15.768394
45144,Essen,51.4519837189,6.96755532639,2,15837,1.748816
50678,Köln,50.9231929404,6.96357683032,1,17874,1.459989
66625,Nohfelden,49.5741878664,7.08539379919,2,10277,101.752786
49767,Twist,52.6652518423,7.09664030435,4,9625,105.748924
56759,Kaisersesch,50.2382785087,7.09908286202,4,4596,24.882131
26842,Ostrhauderfehn,53.14649739,7.61323254841,3,10538,50.934867
66978,Clausen,49.2651382637,7.7503814918,0,4641,79.341224
67757,Kreimbach-Kaulbach,49.5522969791,7.63231511351,0,783,9.085011
67827,Becherbach,49.6578529596,7.67919352385,0,939,10.822015
26474,Spiekeroog,53.7703198934,7.73012520803,0,796,17.488203
67715,Geiselberg,49.3278468072,7.69000556366,1,854,6.440289
57587,Birken-Honigsessen,50.8273329352,7.74426543453,0,2494,17.636049
76848,Wilgartswiesen,49.2978586234,7.85008165039,1,3307,79.467651
58706,Menden,51.4317093859,7.79321657763,5,20118,13.483468
57629,"Malberg, Norken, Höchstenbach u.a.",50.6323692882,7.7600650083,0,10186,81.857452
77971,Kippenheim,48.2949575424,7.8472243483,0,5339,20.597359
67811,Dielkirchen,49.6654462867,7.82757211982,0,548,8.095737
55124,Mainz,50.0010369659,8.20238933822,2,13903,6.239046
59556,Lippstadt,51.6678100388,8.27724669935,1,13002,37.365271
35792,Löhnberg,50.5378720206,8.25594911452,0,4313,33.829857
76596,Forbach,48.6493254069,8.33038199263,2,5017,131.627694
35796,Weinbach,50.4365821361,8.29175463575,0,4537,37.482887
35716,Dietzhölztal,50.8484578865,8.29676673239,0,6010,37.263293
55130,Mainz,49.962509229,8.31238804466,1,20035,13.103535
65462,Ginsheim-Gustavsburg,49.9754711161,8.33488267154,5,15627,13.828333
67549,Worms,49.6376535404,8.3268909556,2,27306,11.578236
35630,Ehringshausen,50.6205827807,8.3767630118,2,9263,45.609686
49328,Melle,52.2209751544,8.41973306634,4,10739,88.741153
67575,Eich,49.749857809,8.40288189993,0,3346,20.963931
33649,Bielefeld,51.9786245224,8.4540882518,2,20101,29.442713
72297,Seewald,48.585984225,8.45572584138,2,2225,58.398014
78739,Hardt,48.180187951,8.4150268144,0,2520,10.575152
26441,Jever,53.5571278792,7.88050066355,12,14083,42.548936
56355,Nastätten u.a.,50.2326106685,7.87222245243,1,6145,40.633769
76855,Annweiler am Trifels,49.2103645555,7.97053246354,4,7043,39.478093
26419,Schortens,53.5455654992,7.96401519661,13,20446,68.590399
79115,Freiburg im Breisgau,47.9881226172,7.82158735582,6,15956,3.011748
77866,Rheinau,48.6567403634,7.93538586146,2,11192,73.731748
57578,Elkenroth,50.7281151135,7.88473643171,0,1874,8.138182
67295,Bolanden,49.6394614257,7.99106797009,0,2403,17.40821
67294,Bischheim u.a.,49.685756542,8.04627622371,1,5655,48.87013
77871,Renchen,48.5869607476,8.02380975851,0,7278,27.516317
67816,"Dreisen, Standenbühl",49.59814138,7.99981611334,0,1197,10.286977
67482,Venningen,49.2810186472,8.07363221207,2,3348,27.130533
67468,"Frankenstein, Neidenfels, Frankeneck",49.4406134057,7.95287400711,0,2643,25.184752
49456,Bakum,52.7340792615,8.14529737776,2,5912,78.743314
65620,Waldbrunn,50.5115443191,8.11306107812,0,5849,29.866342
88045,Friedrichshafen,47.665964395,9.45962183475,11,20372,10.747713
97848,Rechtenbach,49.9856284238,9.51984239734,0,1030,7.367353
25575,Beringstedt,54.1177802272,9.53413144189,0,734,13.980619
97839,Esselbach,49.8699436425,9.54900019531,1,1971,11.982873
34266,Niestetal,51.3155718373,9.58657382117,2,10337,22.200942
88371,Ebersbach-Musbach,47.9704297852,9.58198661351,1,1689,27.278479
74238,Krautheim,49.387922366,9.63580733073,1,4618,52.839078
97788,Neuendorf,50.0353806298,9.62034759655,0,869,9.679137
30419,Hannover,52.4123426238,9.66656603548,27,40538,23.7715
88255,Baienfurt,47.8438253126,9.66511870258,4,12080,39.113005
24782,"Büdelsdorf, Rickert",54.3260405298,9.67487624063,4,11105,11.172645
51147,Köln,50.8688635571,7.1075194408,6,22992,31.973193
45307,Essen,51.4641088843,7.0860544212,5,21125,7.167736
56861,Reil,50.0256376245,7.09839511996,0,1074,12.14112
66578,Schiffweiler,49.3672018362,7.11654121271,1,15999,21.397068
42115,Wuppertal,51.2565768979,7.10982285613,3,14129,4.26354
56850,Enkirch u.a.,49.9687817705,7.19796366087,2,1965,45.524152
49808,Lingen,52.538907899,7.28209809315,8,20052,56.792033
44807,Bochum,51.5090745462,7.22809525075,2,15842,7.837421
44799,Bochum,51.4443842557,7.25636488638,2,15423,4.359354
48493,Wettringen,52.2311550503,7.29521339587,3,7833,57.712412
66916,Breitenbach,49.4272520721,7.28496195329,0,2837,14.405964
53545,"Linz am Rhein, Ockenfels",50.5784417438,7.30282974278,2,6833,14.67886
58300,Wetter (Ruhr),51.3777453717,7.35368272786,9,27945,31.532613
26553,Dornum,53.6557021226,7.41510800062,3,4551,76.515729
53562,Sankt Katharinen (Landkreis Neuwied),50.5916092683,7.35705981279,0,3774,16.850246
53783,Eitorf,50.7646954142,7.45219290316,6,18776,69.862498
55608,Bergen,49.7329129268,7.50081626798,0,1751,39.265907
56283,"Wildenbungert, Gondershausen, Nörtershausen u.a.",50.2294701328,7.4878495116,0,5533,66.916965
67744,"Medard, Rathskirchen u.a.",49.6087218291,7.71809045949,0,3480,71.811933
48432,Rheine,52.2603217281,7.48023266993,3,20137,122.347708
79424,Auggen,47.7887816123,7.58910796512,1,2518,14.146225
82549,Königsdorf,47.8125478601,11.4665617543,2,2973,45.470339
96346,Wallenfels,50.2778188286,11.4996342947,0,2915,45.615145
80995,München,48.2171699056,11.5152098319,4,24081,24.21145
19306,Neustadt-Glewe,53.3964032265,11.5992897094,6,7512,128.110215
7751,"Jena, Bucha, Großpürschütz u.a.",50.8183469063,11.6036829465,0,13190,140.745579
80935,München,48.1986539541,11.5536158476,2,12804,3.697491
7749,Jena,50.9230308581,11.6125736298,0,17222,13.647197
81671,München,48.1219521757,11.6181389491,7,17950,2.29602
83624,Otterfing,47.9143688393,11.6741415033,1,4420,21.135996
81829,München,48.1337438445,11.6883505395,12,20707,10.292966
95180,Berg,50.3803374547,11.7801720495,3,2319,38.877991
92224,Amberg,49.4507786802,11.8454691582,12,41938,50.172854
93346,Ihrlerstein,48.9532557156,11.8503131594,0,4155,23.007809
95505,Immenreuth,49.9520694752,11.8068437739,2,1879,26.422494
6242,Braunsbedra,51.2876006702,11.8887204866,0,10071,63.011759
39264,"Güterglück, Lindau, Deetz u.a.",51.9957868358,12.1138320653,0,9936,461.529488
95126,Schwarzenbach a.d. Saale,50.2103332449,11.9260490841,1,7425,58.424778
95709,Tröstau,50.0277237638,11.9124941321,0,2470,46.428187
93183,Kallmünz,49.1566405105,11.9568277978,1,3788,58.768716
93182,Duggendorf,49.1234453192,11.9245893797,0,1582,22.326854
82490,Farchant,47.5346461428,11.1076167093,3,3692,25.735596
90469,Nürnberg,49.4043467675,11.094681186,2,13530,7.864933
90491,Nürnberg,49.4724946454,11.1319037258,4,20304,7.179245
82211,Herrsching a. Ammersee,48.0027618259,11.1521594189,2,10008,39.901312
99198,"Udestedt, Mönchenholzhausen u.a.",51.0419067834,11.1467053374,2,1804,34.896704
23946,Boltenhagen,53.9444393968,11.2003801994,10,2488,21.008087
82296,Schöngeising,48.1342654843,11.2050794336,2,1844,12.930839
7318,Saalfeld/Saale,50.6130424899,11.3013432749,1,30831,145.051258
19294,Neu Kaliß,53.2161709398,11.3854464861,0,7228,238.242308
99444,Blankenhain,50.8489611598,11.3635100041,4,6493,113.27477
90559,Burgthann,49.3387308105,11.3289693772,1,11240,39.12539
99636,Rastenberg,51.1939918674,11.3758105483,1,3296,54.230109
91278,Pottenstein,49.7684156194,11.4187394136,3,5359,81.984623
25365,Klein Offenseth-Sparrieshoop,53.8021040309,9.68262714385,3,2835,16.968938
89619,Unterstadion,48.2060462571,9.7024537711,0,750,8.816878
36100,Petersberg,50.5824337383,9.73842302986,2,14728,35.509572
88441,Mittelbiberach,48.0775347205,9.7416889278,1,4129,23.670305
30853,Langenhagen,52.4488845247,9.74734825979,16,15174,8.710511
97295,"Waldbrunn, Irtenberger Wald",49.7602430196,9.7870802452,0,2605,11.114045
73525,Stadt Schwäbisch Gmünd,48.7955844251,9.7993083735,5,20533,6.799521
97999,Igersheim,49.5274666676,9.84679956577,1,5589,41.782947
97271,Kleinrinderfeld,49.7026327687,9.84479568879,0,2052,8.597411
97276,Margetshöchheim,49.8362905832,9.85097209496,0,3163,6.650504
89173,Lonsee,48.5436590021,9.90948187615,1,4724,43.341038
88487,Mietingen,48.179546878,9.89573805519,0,4091,26.325513
31084,Freden (Leine),51.9609221226,9.95285747807,0,4892,53.219501
37249,Neu-Eichenberg,51.3858477386,9.89422069782,1,1830,27.634062
24242,Felde,54.3052491074,9.92764424143,0,2064,15.56951
22457,Hamburg,53.6274155528,9.93142137017,5,20065,6.352449
21271,"Hanstedt, Asendorf",53.2563920383,9.98596660387,0,7175,74.043795
24407,Rabenkirchen-Faulück,54.6528777686,9.86374941636,0,999,21.105434
31191,Algermissen,52.263171838,9.97101570369,2,8019,35.711567
22848,Norderstedt,53.6692036397,9.96505391833,6,10525,13.630758
20255,Hamburg,53.5789450903,9.95238392308,5,13770,0.703937
20357,Hamburg,53.5635012931,9.96801962625,16,15251,1.193603
97688,Bad Kissingen,50.2026371681,10.0589751444,8,21005,69.853077
24629,Kisdorf,53.8138749137,10.0479071153,1,3775,24.460779
20149,Hamburg,53.5782132383,9.99254229339,13,7777,1.311007
29223,Celle,52.6339106261,10.0965011831,4,15317,32.537257
31249,Hohenhameln,52.2690544627,10.0774762076,2,9059,69.475261
97239,Aub,49.5473177779,10.0433392509,0,1529,17.540468
21037,Hamburg,53.4466508558,10.1467469876,3,15646,74.305407
24637,Schillsdorf,54.1138374758,10.129848302,0,894,26.798244
36457,"Stadtlengsfeld, Weilar, Urnshausen",50.7620289774,10.1450172152,1,886,14.457413
37539,Bad Grund,51.7884887076,10.2000537444,4,9038,41.262453
24601,Wankendorf,54.1232280933,10.2209019326,0,5532,64.874372
38729,"Hahausen, Lutter, Wallmoden",51.9826553192,10.252335718,2,4274,60.039981
87527,Sonthofen,47.5025473302,10.2913153306,10,23012,65.967333
21029,Hamburg,53.4829810098,10.2268176935,11,18701,6.453903
89564,Nattheim,48.7135741365,10.2718494165,1,6172,44.997267
21465,Reinbek,53.5305680191,10.2638158915,22,38058,38.139691
91626,Schopfloch,49.1122061657,10.3026129107,0,2828,15.290226
87724,Ottobeuren,47.9322340025,10.3256352427,2,7924,55.941896
22955,Hoisdorf,53.6532409168,10.3236170559,0,3189,10.687245
97531,Theres,50.028654026,10.4246265751,0,2701,30.711448
73497,Tannhausen,48.9768729715,10.357630265,1,1852,17.740983
97513,"Michelau i. Steigerwald, Hundelshausen",49.9150353499,10.4542696262,1,1143,36.18445
38112,Braunschweig,52.3092529625,10.4756950068,5,16531,21.401041
91619,Obernzenn,49.4500213441,10.4887292645,2,2639,39.647123
86720,Nördlingen,48.8574521754,10.5111614425,7,19063,68.028723
98547,Viernau u.a.,50.6369880286,10.5110502954,0,2914,55.045964
21527,Kollow,53.4686668967,10.4622639191,0,589,6.315968
29559,Wrestedt,52.887363282,10.6111985367,0,6799,141.220822
97461,Hofheim i. UFr.,50.1382042824,10.5360853695,0,5124,56.282636
38110,Braunschweig,52.3333001452,10.5485070811,0,12569,30.616122
38559,"Wagenhoff, Ringelah",52.5547310985,10.5182677955,0,1141,7.626752
29585,Jelmstorf,53.1038673222,10.5316221788,0,789,13.918201
86424,Dinkelscherben,48.3404250519,10.582381699,0,6516,71.008968
83735,Bayrischzell,47.6575574785,11.9869805055,4,1475,79.462198
93356,Teugn,48.8898562167,12.0120930093,0,1597,16.278204
6112,Halle/ Saale,51.4694984769,11.9990078732,1,11992,10.099095
39524,Sandau,52.6481924914,12.0863914656,0,7627,296.073943
93053,Regensburg,48.9907550209,12.1022427294,15,22650,15.090683
93083,Obertraubling,48.9544832359,12.1521446696,8,7597,24.832694
95659,Arzberg,50.045928947,12.1810276702,1,5468,43.263533
18299,"Laage, Wardow u.a.",53.9184799501,12.3369797663,0,8971,240.064862
95706,Schirnding,50.0718805862,12.2370429165,1,1327,16.528236
4158,Leipzig,51.4022957426,12.3333270886,1,13979,28.909875
4105,Leipzig,51.3506012167,12.3601540447,0,15890,4.864936
4564,Böhlen,51.2067487871,12.3831928752,0,6704,27.17239
83254,Breitbrunn a. Chiemsee,47.8936432654,12.3844439926,1,1553,8.069573
14778,"Beetzsee, Wollin, Wenzlow, Golzow u.a.",52.4905882356,12.6418279025,2,7663,220.061771
4315,Leipzig,51.3445565996,12.4079946628,0,15847,1.98756
92559,Winklarn,49.4362873363,12.5045765434,0,1440,33.766342
84326,Falkenberg,48.4701495326,12.7097225074,3,4669,89.547876
8324,Bockau,50.5286817683,12.6828146969,0,2442,18.986225
8349,Johanngeorgenstadt,50.4344175344,12.6947459428,0,4549,29.545332
9394,Hohndorf,50.7427773826,12.6734904783,0,3787,5.251236
84524,Neuötting,48.2423648939,12.7456588521,3,8328,36.733015
84571,Reischach,48.294645566,12.7142588943,1,2615,28.461992
84335,Mitterskirchen,48.3473189197,12.7291120481,0,2053,24.73455
94379,Sankt Englmar,49.0041747458,12.8207726523,1,1528,36.943975
9236,Claußnitz,50.9388731058,12.8799163142,0,3319,21.466226
14478,Potsdam,52.3659111064,13.0929527306,3,24831,6.517958
14532,Kleinmachnow,52.3701087131,13.202926668,13,34096,61.428706
14129,Berlin Nikolassee,52.4462783242,13.2026038136,3,13834,20.520788
94579,Zenting,48.7878990021,13.2558744796,1,1137,22.203567
94261,Kirchdorf i. Wald,48.9127017996,13.2595569658,0,2143,30.623672
16540,Hohen Neuendorf,52.6609712898,13.2633948271,5,14728,19.408164
15936,Dahme u.a.,51.8813679532,13.4273141453,0,6618,252.273437
15837,Baruth,52.0350129112,13.4841859536,2,4237,234.248849
13353,Berlin Wedding,52.5415972552,13.3494878209,9,24213,3.025613
10787,Berlin Tiergarten,52.5078600673,13.3438868698,13,5613,1.449576
10557,Berlin Moabit,52.5233687469,13.3595445698,11,16312,3.787679
3253,Doberlug-Kirchhain,51.629891314,13.4933625242,0,12064,208.342278
17349,Groß Miltzow,53.5288770127,13.5308204768,0,3328,164.343885
12101,Berlin Tempelhof,52.4785891478,13.3794334469,4,14976,2.336351
94568,Sankt Oswald,48.9308810487,13.4184846795,1,1334,48.406376
10437,Berlin Prenzlauer Berg,52.5448482876,13.4125685186,10,27821,1.473569
10405,Berlin Prenzlauer Berg,52.5351591871,13.4255513074,10,27350,1.877471
12305,Berlin,52.4031921127,13.4016078006,1,20742,4.029002
17099,"Friedland, Galenbeck, Datzetal",53.647683299,13.6742745056,1,2148,133.874975
33129,Delbrück,51.7654502577,8.54089522149,9,30532,157.118458
65830,Kriftel,50.0799083524,8.46666038872,4,10580,6.79229
35580,Wetzlar,50.5251807739,8.48859760204,0,3509,5.962517
27499,Neuwerk,53.9539885932,8.43814729226,0,8,7.62113
78073,Bad Dürrheim,47.9968080278,8.58672791104,6,12315,62.031937
27568,"Bremerhaven, Bremen",53.568735907,8.55980518023,13,15379,10.267413
32609,Hüllhorst,52.2689580547,8.66635625065,2,13210,44.793136
28755,Bremen,53.1959763375,8.61440631428,3,14837,5.381498
27211,Bassum,52.8545908143,8.73674418095,3,15679,168.523334
69254,Malsch,49.2438798323,8.67212104268,1,3441,6.782856
75365,Calw,48.7097400302,8.73580896428,20,22073,59.760077
64380,Roßdorf,49.868729031,8.7620394067,5,11900,20.523014
72108,Rottenburg am Neckar,48.5125082211,9.0060856801,4,40898,142.195889
72367,Weilen unter den Rinnen,48.1883634346,8.77425036476,0,607,3.066168
72358,Dormettingen,48.243389097,8.77423738494,0,1046,6.539948
75397,Simmozheim,48.7527822822,8.76851639473,2,2909,9.498716
63110,Rodgau,50.0129037399,8.88194851234,23,42895,65.071584
28211,Bremen,53.0822274346,8.85473448101,1,13501,2.457551
78267,Aach,47.84367286,8.85819484842,1,2179,10.648151
78253,Eigeltingen,47.8862010561,8.91029947783,0,3660,59.229231
35305,Grünberg,50.6069209542,8.954028975,8,13788,88.843909
72415,Grosselfingen,48.3402874824,8.8792780513,0,2142,16.130499
78580,Bärenthal,48.0867002711,8.92386461956,2,457,12.697957
27442,Gnarrenburg,53.3793096158,9.02315264221,1,9431,123.749725
28832,Achim,53.0205925749,9.03997912214,10,29539,67.99472
35260,Stadtallendorf,50.8326045153,9.01844303484,4,20735,79.0645
32839,Steinheim,51.8485835347,9.05491103523,2,13152,75.640914
33039,Nieheim,51.8066218732,9.10318832442,2,6585,79.616202
70499,Stuttgart,48.8096566016,9.10582985038,17,31452,15.279004
74354,Besigheim,49.0217479085,9.20810107732,2,11743,16.818284
70435,Stuttgart,48.8309418347,9.16199130665,9,20600,6.589433
63924,"Kleinheubach, Rüdenau",49.7189196278,9.18382597012,2,4398,13.491573
25791,"Linden, Barkenholm",54.2458518614,9.19204144503,0,1072,17.268963
21709,Himmelpforten,53.6131988481,9.29784252296,1,6932,44.61392
72511,Bingen,48.1199953619,9.27352854235,1,2773,36.937208
71672,Marbach am Neckar,48.9676568744,9.33840443531,5,15253,19.995143
36318,Schwalmtal,50.6868271477,9.30369650746,1,2921,54.266221
36358,Herbstein,50.5538169644,9.38005977854,1,4870,80.967161
25725,"Schafstedt, Weidenhof, Bornholt",54.0855573925,9.29690917245,0,1390,22.1246
88515,Langenenslingen,48.1666739227,9.35034032114,1,3476,88.228146
71720,Oberstenfeld,49.0328278684,9.3579149634,2,7847,25.579793
72813,St. Johann,48.4531824762,9.3524831611,2,5153,61.670154
71563,Affalterbach,48.9191253024,9.33803037832,1,4483,10.13761
63871,Heinrichsthal,50.0652666488,9.33761879257,0,862,7.856423
24941,Flensburg,54.7689664603,9.40636362903,8,10038,18.183248
31789,Hameln,52.051655733,9.43412256148,4,21098,42.881618
34130,Kassel,51.3248927073,9.43736304859,0,9145,3.737842
37194,"Bodenfelde, Wahlsburg",51.664428494,9.52365599974,2,3373,77.949481
12351,Berlin Buckow,52.4327686548,13.4555048892,7,19154,3.340033
10247,Berlin Friedrichshain,52.516070656,13.4654978106,5,32718,1.806154
1774,Klingenberg,50.8948830062,13.5482039923,0,7050,86.86573
12527,Berlin Schmöckwitz,52.3856280771,13.6338198773,2,9425,26.245386
15732,Schulzendorf b. Eichenwade,52.3604859195,13.5972748291,1,13868,11.934792
1738,Dorfhain,50.9352851778,13.5529622076,0,1113,6.285408
17398,Ducherow,53.7766240526,13.7798543883,0,4156,177.087463
1219,Dresden,51.0231768153,13.765912591,0,20916,6.948872
1277,Dresden,51.0361285231,13.7971935401,0,31798,4.867108
1968,Senftenberg,51.5213337568,14.0228649039,0,24423,117.292244
15517,Fürstenwalde/ Spree,52.374323805,14.0575135407,7,30982,70.872597
15374,Müncheberg,52.5145895321,14.1286100557,0,6893,152.5087
2977,Hoyerswerda,51.4256250145,14.2201581601,2,36125,95.65634
2733,Cunewalde,51.0997540892,14.5248679523,0,5014,26.665135
15230,Frankfurt/ Oder,52.3365751101,14.5517999844,1,16879,5.378892
2957,"Krauschwitz, Weißkeißel",51.497628981,14.6835247727,0,5015,144.749942
2956,Rietschen,51.409935905,14.8025561533,0,2736,87.22105
2797,Oybin,50.8404429344,14.7520401891,0,1515,18.355861
86874,Tussenhausen,48.1062760569,10.5558754846,0,2958,41.761573
87637,Seeg,47.6451846609,10.6120822859,1,3988,63.511808
99735,Werther Hohenstein Wolkramshausen,51.4660389541,10.6977565473,1,4528,80.494462
96126,Maroldsweisach,50.1928732991,10.6796934826,0,4137,81.053648
86842,Türkheim,48.0615586517,10.6358162799,5,6654,31.413077
96185,Schönbrunn i. Steigerwald,49.8632855437,10.6730170871,2,1933,30.880284
86514,Ustersbach,48.3224307612,10.6399156705,0,1101,11.084417
21368,Dahlenburg,53.1875265493,10.7217178309,4,4384,93.545373
38557,Osloß,52.4745138257,10.6761366048,0,1899,7.711744
86830,Schwabmünchen,48.1955991378,10.7281800807,4,13213,55.546375
91805,Polsingen,48.9332333422,10.7296199549,0,1842,33.907257
96476,Rodach b. Coburg,50.3337668932,10.7963759257,3,6348,83.671415
91469,Hagenbüchach,49.5285725926,10.7628868631,1,1229,11.503886
96169,Lauter,49.9771985453,10.7780164367,0,1156,12.398206
86356,Neusäß,48.3926631927,10.8081928743,5,21070,24.269805
86707,"Westendorf, Kühlenthal",48.5689094475,10.8195940902,0,2345,13.397717
91801,Markt Berolzheim,49.0069138476,10.836558946,0,1323,14.507697
38465,Brome,52.6002918359,10.9090720894,0,3257,36.88889
29490,Neu Darchau,53.2108354202,10.9052236629,1,1441,23.692288
38376,Süpplingenburg,52.2607786859,10.9099360945,0,651,14.174668
86444,Affing,48.4493159149,10.9640347002,0,5248,44.333446
96175,Pettstadt,49.8309349026,10.9284735436,1,1967,9.739162
86161,Augsburg,48.3463746051,10.92092906,3,16288,8.864414
29481,Karwitz,53.0864207455,10.9904998726,0,742,31.122926
38459,Bahrdorf,52.3701128084,11.0067658002,0,1907,40.641651
91186,Büchenbach,49.2682612083,11.024942821,0,5141,33.985192
73663,Berglen,48.8542607604,9.46901973579,1,5921,26.487803
34593,Knüllwald,50.9956028254,9.5125678688,5,4570,100.449665
97816,Lohr a. Main,50.0262912588,9.5637001904,12,15296,129.939807
25371,Seestermühe,53.69688514,9.55731386364,2,959,14.974599
88284,Wolpertswende,47.8946444284,9.62228624488,3,4061,26.289517
25368,Kiebitzreihe,53.779884633,9.59280012333,0,2242,8.633523
88212,Ravensburg,47.7807166535,9.62415060818,6,15373,14.961798
97785,Mittelsinn,50.1916427034,9.63608675251,0,858,20.90146
30952,Ronnenberg,52.3091889706,9.6558403474,5,23156,37.754891
37235,Hessisch Lichtenau,51.1952052262,9.74594178626,3,12213,105.331498
58513,Lüdenscheid,51.234177316,7.66307630467,4,8265,26.748478
79426,Buggingen,47.8541271686,7.63196066493,1,3822,15.291508
77977,Rust,48.2704291911,7.71723859092,5,3711,20.263091
58708,Menden,51.4413830092,7.80210644649,4,21966,64.658072
77966,Kappel-Grafenhausen,48.2962211557,7.74929255217,2,4763,24.596928
48351,Everswinkel,51.9186789213,7.84240795955,2,9427,69.088937
56379,Singhofen,50.2830412276,7.77487701958,0,7618,67.309625
57462,Olpe,51.0396429836,7.8864766398,10,24847,85.452417
79669,Zell im Wiesental,47.7177971254,7.8573024665,1,6011,33.616602
79348,Freiamt,48.1752548619,7.92024580931,3,4209,53.180031
49594,Alfhausen,52.4955974208,7.95317771146,0,3786,39.36795
67725,Börrstadt,49.5814004651,7.93795145496,1,1390,18.948474
26160,Bad Zwischenahn,53.1822207023,8.02837416785,10,27512,129.77575
59510,Lippetal,51.6747568338,8.08884316303,7,12020,126.517145
57290,Neunkirchen,50.7866558192,8.01618910975,2,13911,39.700971
55288,Armsheim,49.8818338005,8.08755905128,5,8769,50.931232
57250,Netphen,50.908655701,8.16067273602,6,23422,137.397306
56477,"Rennerod, Zehnhausen, Nister-Möhrendorf, Waigandshain",50.6270233476,8.07423646846,3,4980,27.813212
67273,Weisenheim am Berg,49.4687613195,8.0440046825,4,3709,22.999985
78120,Furtwangen im Schwarzwald,48.0484144231,8.20919146146,3,9247,82.489733
67251,Freinsheim,49.5091539531,8.21284100976,4,5064,9.491314
26133,Oldenburg (Oldenburg),53.1039695394,8.22131462647,5,23512,10.949424
76467,Bietigheim,48.9038796412,8.26257567189,1,6081,13.84962
67136,Fußgönheim,49.4620502777,8.29301344181,0,2588,6.645234
49152,Bad Essen,52.321409609,8.38213698791,8,15033,101.465753
33397,Rietberg,51.8021331766,8.42298707493,6,28652,110.229333
55278,Mommenheim,49.8367810444,8.26274448318,0,17178,77.538326
76149,Karlsruhe,49.049877708,8.38236897122,5,23940,14.846564
79879,Wutach,47.8276321217,8.42580587638,0,1221,30.485517
55469,Simmern/Hunsrück u.a.,49.9977073443,7.5315792207,5,12113,74.710884
56579,Rengsdorf,50.5155738981,7.50052594237,0,4398,15.485998
26629,Großefehn,53.3951007743,7.60487771738,3,13701,127.202908
48163,Münster,51.8948760365,7.57624273135,9,23534,62.804141
44309,Dortmund,51.5270638632,7.55606818137,5,22257,10.952844
59387,Ascheberg,51.7730411127,7.63972656291,6,15141,106.299009
67753,Rothselberg u.a.,49.5448181061,7.59332943087,1,2565,36.507744
54673,Neuerburg u.a.,50.0160842722,6.25995522339,4,3944,118.557907
52222,Stolberg (Rhld.),50.7732075076,6.2188032935,8,20927,14.31408
54669,Bollendorf,49.8541299064,6.36278240325,2,1647,13.172957
54450,Freudenburg,49.5468793061,6.5417138268,0,1593,11.084284
53909,Zülpich,50.6865060419,6.66803622211,5,19768,100.9889
53945,Blankenheim,50.4082856808,6.68832188939,4,8661,148.562251
66701,Beckingen,49.4219891439,6.74154934693,0,15368,51.694981
47229,Duisburg,51.3877956582,6.70658966139,0,13833,12.169768
49847,Itterbeck/Wielen,52.5127951,6.75495320737,1,2417,64.208893
41469,Neuss,51.1533700932,6.71857747686,0,18560,8.559135
46537,Dinslaken,51.5783118577,6.73926067888,7,25529,6.312165
41540,Dormagen,51.0757088363,6.79894962288,5,17396,19.257637
66806,Ensdorf,49.3023561806,6.78149202392,0,6555,8.387217
40880,Ratingen,51.298077626,6.81960863347,4,21188,8.763663
46149,Oberhausen,51.5115807752,6.83521689442,2,27525,11.664186
40789,Monheim am Rhein,51.095929473,6.89269538952,9,40296,23.216197
50937,Köln,50.9121855241,6.91145140382,1,26066,4.267387
50997,Köln,50.8651006899,6.95062251833,3,20728,25.634132
40724,Hilden,51.1812752882,6.95465470824,6,20591,11.88771
50668,Köln,50.9499808484,6.96284467591,6,11765,1.591028
45141,Essen,51.4739085921,7.0236153299,11,21327,8.168669
45327,Essen,51.4973069806,7.04606747547,1,24572,5.653774
66649,Oberthal,49.5243875594,7.09459965425,0,6164,23.612782
26871,Papenburg,53.0563970713,7.40186463955,13,35107,118.552609
56290,Beltheim,50.1205133819,7.40731124079,2,6693,115.067124
56567,Neuwied,50.4718180473,7.44725124229,3,20565,37.547713
66497,Contwig,49.2428328655,7.43959689307,1,4854,25.367956
48341,Altenberge,52.0385805385,7.47797335804,6,10043,63.00323
66501,Kleinbundenbach,49.3039131284,7.43409396027,0,822,12.02213
45277,Essen,51.4258596796,7.07735477633,2,16108,6.75687
53127,Bonn,50.7020652411,7.08538245594,3,14030,7.703171
45770,Marl,51.6591776921,7.14475161778,2,27291,31.227292
45888,Gelsenkirchen,51.5163571165,7.11922599007,1,22821,4.213708
53757,Sankt Augustin,50.7713994554,7.18978816107,12,53997,34.20637
45659,Recklinghausen,51.6168041729,7.18548176498,2,20261,23.708031
44795,Bochum,51.4514197434,7.1971465118,4,25059,8.151858
56814,Ediger-Eller,50.1032155005,7.14052051903,2,7241,90.320428
56867,Briedel,50.0068624255,7.16247852923,0,948,16.77161
47574,Goch,51.6954346369,6.12369054365,26,32784,115.444242
52499,Baesweiler,50.9179633642,6.18527617476,9,26376,27.711509
54608,Bleialf,50.2370856422,6.30452023499,1,2627,86.177041
47669,Wachtendonk,51.3994770115,6.32629849258,1,7818,48.079196
41747,Viersen,51.2530903346,6.38385140636,6,18744,8.616627
54310,Ralingen,49.8141869183,6.51728602285,1,2471,35.078087
53925,Kall,50.516428529,6.55267370183,5,11403,65.954569
54578,"Walsdorf, Nohn u.a.",50.3297027087,6.79282268184,2,4159,72.690176
47179,Duisburg,51.5256100818,6.73693787594,0,20824,8.745993
41470,Neuss,51.1351486988,6.7366153327,1,12894,12.326904
53881,Euskirchen,50.6348255232,6.81830113033,8,27256,127.741805
66333,Völklingen,49.2203961946,6.80256854397,25,38818,67.022083
47166,Duisburg,51.4922674522,6.75447604234,5,27432,8.89337
40547,Düsseldorf,51.2445592059,6.74124791637,4,15302,5.188808
49843,"Uelsen, Halle, Gölenkamp, Getelo",52.4877728551,6.88437919366,3,7367,81.741758
40237,Düsseldorf,51.2370489921,6.81063762557,2,14871,1.850192
40593,Düsseldorf,51.1426265494,6.871972707,4,13193,8.777618
53332,Bornheim,50.7682278545,6.95507401611,7,46272,82.672299
45356,Essen,51.4913521693,6.97131018072,5,14236,9.328435
56729,Ettringen,50.3286948986,7.09768127486,3,12306,150.057312
51379,Leverkusen,51.0702850308,7.00103346393,2,22796,6.752763
42799,Leichlingen,51.111956194,7.05851261086,0,27509,37.263381
66287,Quierschied,49.3220458026,7.02877233503,1,13504,20.253132
45130,Essen,51.4377243459,7.00977408303,14,15410,1.344064
45128,Essen,51.4459272376,7.01260672342,16,11535,1.72716
51069,Köln,50.9910630685,7.05850692211,2,31587,20.421622
44866,Bochum,51.4858312644,7.14100141565,1,34969,9.463612
66640,Namborn,49.5181729329,7.1646427425,0,7424,25.937364
51429,Bergisch Gladbach,50.9713637107,7.19336499328,3,26056,34.784234
56653,Wehr,50.422409334,7.2420602897,0,2840,27.55119
44625,Herne,51.5277412676,7.21408728647,6,22935,7.043168
44789,Bochum,51.4690022614,7.22110862261,4,18728,3.670544
26892,"Dörpen, Lehe, u.a.",52.9667037434,7.34106602199,9,10591,123.869808
44579,Castrop-Rauxel,51.5758909596,7.28904193216,3,16136,15.153857
88281,Schlier,47.7941948515,9.69597036366,0,3646,32.515727
73107,Eschenbach,48.6532073758,9.67634963783,0,2152,3.651673
24864,"Brodersby, Goltoft",54.5377445964,9.70555017084,0,762,13.45114
24888,Steinfeld,54.6042060435,9.72649374149,0,1043,15.45274
24802,Emkendorf,54.2435892044,9.81741278696,0,3071,63.902019
29308,Winsen (Aller),52.7003491778,9.87908511048,2,12737,149.716385
73312,Geislingen an der Steige,48.6112796565,9.83632831511,4,26089,75.808106
97789,Oberleichtersbach,50.2764282646,9.80316619757,0,2057,28.355045
36160,Dipperz,50.5339100251,9.8137083957,2,3327,30.050346
97795,Schondra,50.2483615758,9.85392407864,2,1756,51.133577
25485,Hemdingen,53.7737551621,9.84928258662,1,2948,32.666891
25469,Halstenbek,53.6246158859,9.83843359862,6,16265,12.577696
24364,Holzdorf,54.5576371672,9.90501822658,1,930,17.436942
24568,Kaltenkirchen,53.841744414,9.95584794621,8,22996,65.968322
97080,Würzburg,49.8160473527,9.91514705023,5,14291,18.391731
36419,Geisa,50.7044518838,9.9724342324,2,7110,125.060393
74424,Bühlertann,49.0326071713,9.93013635028,2,3037,23.555412
36284,Hohenroda,50.8125077778,9.92476550406,1,3214,35.513016
97070,Würzburg,49.7945094495,9.9350892094,13,12029,2.211782
89197,Weidenstetten,48.5586628664,9.98071039285,1,1287,17.166261
31162,Bad Salzdetfurth,52.0723589076,10.0244188507,8,13382,66.803897
73494,Rosenberg,49.0102523387,10.0300430894,0,2673,40.996327
97656,Oberelsbach,50.4383503556,10.0776375397,1,2793,67.639319
21220,Seevetal,53.3586360617,10.0471685489,7,13640,41.389039
24220,Flintbek,54.2355347246,10.0831411445,3,8611,36.2688
21376,Salzhausen,53.2165710631,10.1413414638,2,7873,82.645243
88451,Dettingen an der Iller,48.107798004,10.1084121225,2,2286,11.13009
31311,Uetze,52.4605993385,10.1699571802,1,19978,139.999371
29221,Celle,52.616888943,10.08238445,11,14796,6.39503
22119,Hamburg,53.556504865,10.1080551899,6,28977,5.473822
89281,Altenstadt,48.1680503523,10.130407359,2,4939,31.437333
87764,Legau,47.8560932437,10.1427004275,0,3118,36.343116
73492,Rainau,48.9206756564,10.1508649317,0,3356,25.410195
24635,Rickling,54.0057053823,10.1956999393,4,3927,53.807439
24245,Kirchbarkau,54.214753848,10.1581142623,0,1339,14.070459
24610,Trappenkamp,54.046980028,10.181429904,3,5562,18.297631
87773,Pleß,48.1024764484,10.1663113704,0,847,15.39032
87734,Benningen,47.9663543407,10.2173143029,0,2056,9.146943
87785,Winterrieden,48.1198738712,10.2158773868,0,895,9.805176
91550,Dinkelsbühl,49.0752657737,10.3103761122,8,11251,75.178483
97638,Mellrichstadt,50.3806966161,10.3235683085,7,5667,55.718638
91555,Feuchtwangen,49.175296641,10.3213499729,4,12095,137.141488
97508,Grettstadt,49.9896269121,10.3400081606,1,4124,34.875642
29351,Eldingen,52.6715463942,10.3445090482,1,2123,57.346203
38704,Liebenburg,52.0035458981,10.4093399341,1,8590,78.509683
89446,Ziertheim,48.6613726547,10.3985541689,0,1004,20.860787
22958,Kuddewörde,53.5800853786,10.4076484467,0,1345,7.309978
29553,Bienenbüttel,53.1393934627,10.4839729761,0,6701,99.360955
99947,Bad Langensalza,51.120094827,10.617453156,9,20644,175.244391
22956,Grönwohld,53.6473213403,10.4120237314,0,1318,9.795101
99880,Waltershausen,50.9133377069,10.5366246899,6,17879,120.329963
89407,Dillingen a.d. Donau,48.5748640743,10.5312747604,5,18103,75.544506
87775,Salgen,48.1260523671,10.485117107,0,1420,23.245511
38551,Ribbesbüttel,52.4307428716,10.4971433978,0,2092,24.67408
35644,Hohenahr,50.6692442358,8.49203593305,0,4891,45.289328
33647,Bielefeld,51.9780011447,8.50514138876,8,19175,11.501735
33739,Bielefeld,52.0849761602,8.51817327974,1,23203,34.982132
72175,Dornhan,48.357153661,8.53004801817,0,6141,44.916001
35075,Gladenbach,50.7767942816,8.57905286395,5,12245,73.218079
78083,Dauchingen,48.0931436248,8.54985547091,1,3581,10.035432
72296,Schopfloch,48.4183253117,8.55342556192,0,2632,17.032217
68799,Reilingen,49.2977095604,8.57216977998,3,7174,16.342385
35428,Langgöns,50.4707975253,8.60145461532,4,11671,52.50102
78628,Rottweil,48.1680374974,8.65280720046,6,24400,71.670506
64295,Darmstadt,49.8513172148,8.60803078413,9,16687,15.525671
60439,Frankfurt am Main,50.1629505055,8.6233057515,3,35056,9.069273
72221,Haiterbach,48.5300490014,8.64541896792,2,5632,28.911698
69214,Eppelheim,49.3962683857,8.62606138247,3,14713,5.696017
78591,Durchhausen,48.0384410754,8.66877078428,0,926,8.981329
72229,Rohrdorf,48.5681977327,8.68623790595,0,1899,3.913362
60314,Frankfurt am Main,50.1146840015,8.72408804741,5,10109,4.222873
64668,Rimbach,49.6194860562,8.76612367939,3,8545,23.050096
78582,Balgheim,48.0735724432,8.77024616868,4,1146,7.614695
64859,Eppertshausen,49.9483646937,8.82908010702,1,5954,12.864102
28199,Bremen,53.0577407419,8.78827062072,7,19837,8.351353
28844,Weyhe,52.988728106,8.85078323674,6,30011,60.283296
78589,Dürbheim,48.0564162393,8.8018581602,2,1640,14.763921
63073,Offenbach am Main,50.0825793218,8.81547150849,2,14253,8.888916
78224,Singen,47.7606924585,8.87034249156,14,44642,61.669385
74915,Waibstadt,49.2944398194,8.90516613297,2,5662,25.565442
78600,Kolbingen,48.0601843945,8.89282174344,0,1255,16.426417
64757,Unter-Hainbrunn,49.4830325113,8.907904271,1,27,0.469309
34414,Warburg,51.5134865478,9.09230506928,6,23596,168.668627
78345,Moos,47.7116118866,8.93903488018,1,3177,14.358832
74906,Bad Rappenau,49.2392764507,9.06454419865,5,20039,73.47798
63533,Mainhausen,50.010116201,9.0087223203,1,8978,17.899682
78351,Bodman-Ludwigshafen,47.8107792792,9.03574196725,2,4200,27.933881
74372,Sersheim,48.9629388965,9.01506642192,1,5295,11.457899
69439,Zwingenberg,49.4164441925,9.03548658389,0,713,4.738335
74392,Freudental,49.0090138382,9.05226049751,0,2362,3.096053
70569,Stuttgart,48.745341804,9.09002356655,10,19584,16.981239
74391,Erligheim,49.0178221618,9.08862047171,0,2674,6.202817
78354,Sipplingen,47.7984120387,9.10270123741,0,2035,4.271161
31628,Landesbergen,52.5507616605,9.16258630982,1,2782,41.943675
35327,Ulrichstein,50.5762454771,9.18499011823,1,3096,66.033652
63897,Miltenberg,49.689383143,9.24486807876,8,9105,60.190694
34434,Borgentreich,51.5765197471,9.25584383055,2,9144,138.800758
71634,Ludwigsburg,48.910702461,9.17214350302,4,18035,7.007433
72631,Aichtal,48.6252107047,9.21862897162,1,9547,23.599721
74379,Ingersheim,48.9678275025,9.18376388889,0,6039,11.549863
71691,Freiberg am Neckar,48.9334351368,9.18939410204,3,15552,13.18198
63826,Geiselbach,50.1196876813,9.19471829694,1,2129,12.462066
71642,Ludwigsburg,48.9116393023,9.24761622011,1,17680,20.392033
72658,Bempflingen,48.5756293803,9.27756195806,0,3388,6.296137
24803,Erfde,54.3096087653,9.32709284994,3,2301,47.100143
63875,Mespelbrunn,49.9192652832,9.30069957469,1,2208,15.973578
27356,Rotenburg,53.1627879377,9.32771669819,12,21131,99.09553
71334,Waiblingen,48.8385263637,9.32741871721,5,19152,12.915525
88356,Ostrach,47.9510808107,9.36070188126,3,6762,109.295267
24887,"Silberstedt, Schwittschau",54.5364485377,9.36695407846,2,2182,37.954138
73773,Aichwald,48.7628902603,9.38755420777,2,7451,14.641459
34128,Kassel,51.3397935318,9.42092766462,2,17801,15.456107
37691,"Boffzen, Derental",51.7331523488,9.5069829897,1,3532,41.646625
97900,Külsheim,49.6729615379,9.50739279413,2,5368,81.376311
26180,Rastede,53.2607886882,8.21104953458,4,21247,123.160857
78136,Schonach im Schwarzwald,48.1489459936,8.18003278391,1,4065,36.372589
67169,Kallstadt,49.4898973758,8.17253866368,2,1162,4.113782
59609,Anröchte,51.548961809,8.30916465167,3,10442,73.752583
26969,Butjadingen,53.5518626086,8.33688384137,2,6401,132.448292
65183,Wiesbaden,50.0845865084,8.23740931104,5,14296,0.908563
65185,Wiesbaden,50.0760018521,8.2395654136,6,13066,1.240508
76448,Durmersheim,48.9323165433,8.2889324619,3,11898,25.92286
67587,Wintersheim,49.7791232077,8.29122041071,0,320,3.811931
78199,Bräunlingen,47.9300038505,8.40052701152,3,5923,62.2063
72250,Freudenstadt,48.4919974133,8.24460297011,14,22197,87.454278
49448,Lemförde u.a.,52.483706874,8.39375494093,2,6868,86.803473
59555,Lippstadt,51.6875612681,8.3384525134,8,18300,13.08084
35688,Dillenburg,50.7418181044,8.36200488195,1,2193,16.552754
78166,Donaueschingen,47.9639132446,8.32174397053,7,21340,105.815777
67373,Dudenhofen,49.3209582522,8.3805846103,4,5740,12.948717
68623,Lampertheim,49.6170051012,8.46914535929,11,31102,72.873166
64589,Stockstadt am Rhein,49.8123177737,8.44510879932,2,5797,23.712188
34323,Malsfeld,51.0811610392,9.50303201101,2,3933,34.480563
27374,Visselhövede,52.992872734,9.55535696711,6,10224,159.199543
34302,Guxhagen,51.1998911777,9.50456953906,2,5234,26.312854
74629,Pfedelbach,49.1534270535,9.53407549071,0,8969,41.234199
25379,"Herzhorn, Kamerlanderdeich",53.7751268918,9.50568613188,0,1056,12.460456
24960,"Glücksburg, Munkbrarup",54.8318544509,9.56701409182,4,6988,28.834387
24999,Wees,54.8073462208,9.53319741887,0,2290,12.804694
73066,Uhingen,48.7216342528,9.5660314046,3,13765,24.673691
34253,Lohfelden,51.2688331922,9.55307842675,3,13517,16.36838
88276,Berg,47.8280242584,9.57698005288,0,4112,28.408493
88214,Ravensburg,47.7413960319,9.60866951739,5,17294,28.910288
21723,Hollern-Twielenfleth,53.5945246255,9.53707242409,3,3326,18.427127
72589,Westerheim,48.5152537611,9.61581898937,1,2888,22.890187
24594,Hohenwestedt,54.0980113104,9.68202045157,3,8166,98.631114
89617,Untermarchtal,48.2417109597,9.61106870693,1,900,5.594781
24894,"Tolk, Twedt",54.5947725477,9.65621767662,0,1594,23.013631
73105,Dürnau,48.6399851577,9.63463308312,0,2097,5.365711
30455,Hannover,52.3598250195,9.6676309452,3,21257,6.51021
30453,Hannover,52.3710281048,9.68397290323,12,18707,9.314118
66996,"Fischbach, Erfweiler u.a.",49.082644636,7.69486266178,3,4721,88.711801
76887,Bad Bergzabern u.a.,49.1085511748,7.97889017804,5,8110,19.658553
79364,Malterdingen,48.1605335603,7.79431855254,0,3018,11.145896
55424,Münster-Sarmsheim,49.9437357441,7.87985977741,0,2821,6.658542
79106,Freiburg im Breisgau,48.0064228821,7.85419686577,7,20831,2.816805
79117,Freiburg im Breisgau,47.9673328335,7.90143485476,2,18272,28.294359
77656,Offenburg,48.4633415468,7.92245679561,7,19196,36.763831
79674,Todtnau,47.8274213592,7.96107422709,4,4788,74.20661
49076,Osnabrück,52.2887314365,7.97752262966,5,12940,15.238622
76835,Rhodt u.a.,49.2611014651,8.0698779689,3,5079,43.29144
56472,Nisterau u.a.,50.6231397751,7.92965743249,0,6304,37.595111
57072,Siegen,50.8826427364,7.98830841722,13,25016,22.809558
77654,Offenburg,48.4756524061,7.9829011364,4,20717,19.948063
67305,Ramsen,49.5208413286,7.98963069563,0,1832,27.042664
77797,Ohlsbach,48.442144306,8.00221078399,0,3190,11.123654
49124,Georgsmarienhütte,52.2047408272,8.07510582865,15,31995,55.374695
79730,Murg,47.5832750434,8.02325675255,7,6765,20.912489
79859,Schluchsee,47.8134289422,8.16204182253,3,2411,68.330057
56316,Raubach,50.5755421266,7.62762283258,0,2944,11.647557
58762,Altena,51.2846807992,7.68837531783,4,18238,44.396356
79541,Lörrach,47.6370737894,7.69521993801,2,12985,25.634109
56132,Bad Ems Umland,50.2889288711,7.71280258218,0,4308,29.821915
56346,Sankt Goarshausen u.a.,50.1447587631,7.751681097,0,1929,15.14315
48167,Münster,51.9232699475,7.72301370192,2,25352,26.922112
48324,Sendenhorst,51.853454144,7.79060384692,7,12877,96.865206
79356,Eichstetten,48.0967388665,7.73127175283,1,3272,12.279348
59075,Hamm,51.7057147611,7.74778432202,1,27310,31.605901
26169,Friesoythe,53.0075552364,7.84365841927,8,21066,247.243509
67806,"Rockenhausen, Bisterschied u.a.",49.6279708583,7.80889555444,1,6547,63.072233
56410,Montabaur,50.4274559439,7.80578391595,8,12514,33.931414
67724,"Gundersweiler, Gonbach u.a.",49.5448248569,7.90455690525,0,2030,27.671361
79292,Pfaffenweiler,47.9382112894,7.75942384711,0,2507,3.593158
67822,"Winterborn, Waldgrehweiler, Niedermoschel, u.a.",49.7199983343,7.85853438568,0,3449,63.745797
79114,Freiburg im Breisgau,47.9995910843,7.80987646299,2,21091,3.610027
48356,Nordwalde,52.1003544853,7.48550312324,1,9403,51.540362
44137,Dortmund,51.508204533,7.44878217958,13,21641,3.286916
48480,"Lünne, Schapen, Spelle",52.3916575148,7.48049802476,3,12828,90.610477
6128,Halle/ Saale,51.4499543304,11.9442621351,0,19725,7.419285
95182,Döhlau,50.2856625132,11.9645733449,0,3998,15.277652
84056,Rottenburg a.d. Laaber,48.7164185903,12.038480004,6,7653,90.199923
83098,Brannenburg,47.7289441747,12.0699040221,3,5626,33.733771
6712,"Zeitz, Gutenborn u.a.",51.0173736447,12.150177214,0,32632,138.480218
84032,"Landshut, Altdorf",48.5607459472,12.089726872,4,20551,26.526931
8548,Rosenbach,50.553719965,12.0836119407,0,1559,15.509712
7551,Gera,50.8348351589,12.1104470658,0,8688,22.308426
92533,Wernberg-Köblitz,49.5410815632,12.1589892588,5,5662,66.236173
84036,Landshut,48.5244133938,12.198145798,5,22204,71.002359
83569,Vogtareuth,47.931498224,12.1764382958,0,3042,34.290771
95691,Hohenberg a.d. Eger,50.1024390468,12.1880085182,1,1474,15.66124
4523,"Pegau, Elstertrebnitz",51.1891950505,12.2349348601,0,7826,60.419476
95692,Konnersreuth,50.0059451634,12.223888143,0,1888,23.441642
6792,Sandersdorf-Brehna,51.6196482073,12.246826176,0,8866,24.178446
92727,Waldthurn,49.681306836,12.3283656214,0,2001,30.997843
92723,Tännesberg,49.53510963,12.3287486023,0,2254,57.529086
93102,Pfatter,48.9603329129,12.3807650131,0,3031,48.156944
83546,Gars am Inn,48.1760679116,12.3221128175,0,438,9.420509
14727,Premnitz,52.543673454,12.3690472179,1,8663,45.986239
4575,"Neukieritzsch, Deutzen",51.1510224217,12.4157752489,1,7178,54.573364
92445,Neukirchen-Balbini,49.2902978325,12.4176269897,0,1149,48.255693
8228,Rodewisch,50.5361799611,12.4183519618,0,6817,26.896973
8062,Zwickau,50.6935303701,12.4685032472,0,13382,3.555333
18317,Saal,54.3538214079,12.5286784155,0,1572,49.124396
6772,Gräfenhainichen,51.7262089645,12.3774782488,0,4909,64.142283
83278,Traunstein,47.8796441123,12.6439808048,11,18705,48.589091
94347,Ascha,48.9889655469,12.6232331173,1,1569,19.545299
94357,Konzell,49.073824703,12.7080631876,1,1750,26.826882
83379,Wonneberg,47.9018198994,12.7179230988,0,1472,18.101415
9366,Stollberg/Erzgeb.,50.6957819424,12.7704977013,1,12910,52.144936
17154,Neukalen,53.8225045971,12.779005343,0,1918,48.194397
93477,Gleißenberg,49.3247260474,12.7436840121,0,865,15.323283
4862,Mockrehna,51.5110712956,12.8310626118,0,5193,114.582481
84533,Marktl,48.2384852231,12.8539267802,1,6103,62.393717
94244,Teisnach,49.0299708099,13.0108279203,3,5053,48.342037
14554,Seddiner See,52.2766762245,13.0021297924,2,3946,23.913297
14109,Berlin Wannsee,52.4197394362,13.1439922748,2,10049,25.26035
94227,Zwiesel,49.0491546276,13.2810910225,4,11832,150.150042
14053,Berlin Westend,52.5153562929,13.2381969243,0,139,1.471479
94548,Innernzell,48.8484350362,13.2726629812,1,1638,22.117684
14979,Großbeeren,52.3621548522,13.328382704,3,7651,51.81756
12209,Berlin-Lichterfelde,52.4174388465,13.3291871711,0,14892,3.007283
13351,Berlin Wedding,52.5506376181,13.3328445617,3,14173,2.616846
6268,"Querfurt, Obhausen, Mücheln u.a.",51.3484600024,11.6051854733,0,19154,292.92739
85244,Röhrmoos,48.3317643989,11.4582887236,1,6070,31.753722
85256,Vierkirchen,48.3653599069,11.466253141,1,4226,19.372761
81247,München,48.1668423526,11.4677839636,9,16330,4.938245
6295,Eisleben,51.5170384727,11.5627493477,0,25503,153.845924
7387,Krölpa,50.6958233212,11.5191129471,0,2823,42.456699
80639,München,48.1508996764,11.5092215876,8,19417,3.924203
39446,Staßfurt,51.8912850256,11.5409431466,0,2816,19.922588
81371,München,48.1142338838,11.5477622512,6,23058,2.16791
95358,Guttenberg,50.1618376367,11.5697433035,0,544,10.611732
85301,Schweitenkirchen,48.5146924292,11.6138437799,7,4842,53.053331
80803,München,48.1644692329,11.5802463346,3,9404,0.530147
85376,Neufahrn b. Freising,48.3558985472,11.6397011447,0,2051,21.09953
39108,Magdeburg,52.1326365384,11.6136804368,5,24928,3.213038
81925,München,48.1622023936,11.6223189839,7,16377,4.332202
92278,Illschwang,49.4542143695,11.6964534312,3,2025,54.201666
85540,Haar,48.1180527578,11.7328873444,6,19238,12.885463
6179,Teutschenthal,51.4414354613,11.8165125694,1,13520,91.126014
85452,Moosinning,48.2774508892,11.80793056,1,5403,40.013134
95514,Neustadt a. Kulm,49.8275126032,11.8353185686,0,1219,20.339586
19322,"Wittenberge, Rühstädt",53.0138188872,11.7526310367,4,21671,140.991027
92724,Trabitz,49.7835896583,11.898396258,0,1314,26.716949
95506,Kastl,49.824815103,11.9111887715,0,1417,24.574925
19372,Spornitz,53.3573549205,11.7588965621,0,5076,221.62316
93359,Wildenberg,48.725724851,11.9077607079,0,1318,18.178361
6536,"Südharz, Berga",51.596557905,11.040744107,1,11904,263.530502
39343,"Erxleben, Nordgermersleben u.a.",52.2939708357,11.4987916666,2,15418,314.304774
91365,Weilersbach,49.7511607033,11.1316315575,0,2057,8.55412
19071,Brüsewitz,53.6707257244,11.278323216,0,3756,66.668045
6458,Hedersleben,51.8631737866,11.2826254615,0,2992,53.324279
96332,Pressig,50.3630229455,11.319728565,1,4038,53.160854
6464,Seeland,51.788852471,11.3721212835,0,1446,12.815451
95491,Ahorntal,49.8474284948,11.4414415883,1,2261,61.990041
87648,Aitrang,47.825286617,10.5187312293,0,1990,31.055915
97496,Burgpreppach,50.1339530338,10.6305038275,1,1419,38.721227
24327,Blekendorf,54.2660773483,10.6630239555,0,2317,60.908987
38322,Hedeper,52.0648348,10.6940570858,0,516,15.684769
86879,Wiedergeltingen,48.0351120001,10.6719808198,0,1390,11.600908
96166,Kirchlauter,50.0410194749,10.7012818454,1,1395,16.884794
23899,Gudow,53.5491407506,10.7734825949,3,1765,54.843186
96145,Seßlach,50.197830801,10.8100649952,3,4073,72.514193
19273,"Amt Neuhaus, Stapel",53.2681419213,10.9525987247,0,6930,307.371454
98669,Veilsdorf,50.4126553386,10.8098767709,1,2946,31.08118
96182,Reckendorf,50.0276834769,10.8325415858,0,2019,12.996286
99338,Arnstadt,50.7733531772,10.8769665354,1,2475,27.70717
86682,Genderkingen,48.7094499591,10.8686885279,0,1162,11.643207
98666,"Biberau, Masserberg",50.5087654377,10.9308291992,2,3040,43.689694
91174,Spalt,49.1763035608,10.917291073,3,5001,55.681751
38895,"Langenstein, Derenburg",51.8634740803,10.9448124065,0,4190,55.728581
86981,Kinsau,47.8786259528,10.904949295,0,1025,11.44768
86929,Penzing,48.0784713419,10.939715919,0,3610,33.826316
96486,Lautertal,50.3433264394,10.9598867863,1,4098,30.334821
90762,Fürth,49.4740260903,10.994061028,15,18429,2.359732
99087,Erfurt,51.0241950684,11.0357326248,4,7618,5.567555
90451,Nürnberg,49.4039629258,11.0467530315,4,15458,10.270033
94133,Röhrnbach,48.7533261393,13.5166386013,3,4478,40.691495
94124,Büchlberg,48.6748285897,13.529336818,1,4065,28.141174
12524,Berlin Altglienicke,52.4127511693,13.5416370197,1,25446,8.069945
17438,Wolgast,54.05599792,13.8087385682,3,12632,61.749298
1157,Dresden,51.0643561198,13.6676786028,0,20684,8.063627
15569,Woltersdorf,52.4493074223,13.7614819028,0,7771,9.198621
1069,Dresden,51.0399084836,13.7368379072,1,25491,5.351816
15378,Rüdersdorf,52.491385575,13.8525048285,0,4685,24.238389
15526,Bad Saarow-Pieskow,52.2720633243,14.0349000197,4,5988,76.755354
17322,"Blankensee, Grambow u.a.",53.5192268527,14.2839829395,0,2870,132.583886
3054,Cottbus,51.8314854697,14.3512956495,0,2302,20.352006
2689,Sohland a. d. Spree,51.0466478504,14.4298411476,0,7117,37.396038
2827,Görlitz,51.1082758608,14.9535390929,0,17068,37.17863
54597,Pronsfeld,50.0885019173,6.42911912543,5,10645,303.756642
54646,Bettingen,49.9457019237,6.38743115102,1,1624,33.556427
52353,Düren,50.8327637036,6.4527509367,3,25000,31.455406
46519,Alpen,51.596550058,6.48874478664,6,12806,59.591145
41516,Grevenbroich,51.1205017621,6.63719725873,2,20507,41.603819
47800,Krefeld,51.3501409806,6.60188919952,4,17896,8.423146
40668,Meerbusch,51.3057362537,6.68695462443,5,14922,25.815557
54295,Trier,49.7470394006,6.65590795934,1,16026,4.819627
50226,Frechen,50.9135840286,6.78413770949,12,49670,45.119035
46348,Raesfeld,51.7663114645,6.83324250566,7,11178,57.945803
40479,Düsseldorf,51.2337103445,6.78050524355,4,9583,1.087753
40477,Düsseldorf,51.2394526653,6.78571134408,5,15854,1.143888
66359,Bous,49.2783474002,6.81722819765,0,7099,7.612479
40235,Düsseldorf,51.2310417977,6.82493056265,3,17101,2.622098
40597,Düsseldorf,51.1651573382,6.87718392153,3,14164,4.713907
50939,Köln,50.9187242111,6.92513332887,4,14507,2.348656
54538,Bausendorf,50.035239655,7.02033760535,1,4872,78.643614
46238,Bottrop,51.5213088717,6.96422222125,6,25729,11.72879
50667,Köln,50.9386556776,6.95506986959,4,4795,1.273068
54424,Thalfang,49.7562453233,7.00513648505,1,2282,32.572175
56826,Lutzerath,50.1266110759,7.00564092464,0,1789,29.700115
54413,Gusenburg,49.6295653647,6.89615284279,1,4668,65.980051
53501,Grafschaft,50.5730177955,7.0827490883,1,10809,57.659351
42549,Velbert,51.3368772978,7.02302527563,15,27898,9.864775
56864,Bad Bertrich,50.0807245947,7.02626179271,0,1011,9.618371
45768,Marl,51.6553818074,7.06080604795,0,28875,26.880843
79258,Hartheim,47.9299892135,7.61880354695,4,4611,25.511216
67752,Wolfstein,49.585125361,7.6137000277,1,2681,21.098248
58511,Lüdenscheid,51.2172736322,7.6494440714,3,23894,5.756706
55422,"Bacharach, Breitscheid",50.0506483454,7.72878592086,1,2063,28.613455
55442,Stromberg,49.9662307391,7.75606604509,4,4726,32.834843
79353,Bahlingen am Kaiserstuhl,48.1205442962,7.73993610756,5,3919,12.669369
67759,Nußbach,49.6364291003,7.70095382029,0,735,10.293489
58553,Halver,51.1886181087,7.4953801788,4,16540,77.158619
56564,Neuwied,50.4334547126,7.47133370722,8,22085,8.783654
58095,Hagen,51.3649483394,7.49705837717,4,18460,2.667158
55618,Simmertal,49.821570115,7.52529812834,0,1885,7.494094
44328,Dortmund,51.5482482484,7.53558289651,2,20236,7.540595
79415,Bad Bellingen,47.7209570594,7.56459411013,3,3848,16.914291
58119,Hagen,51.3514731089,7.56824278183,5,23423,19.300883
55499,Riesweiler,49.9403946319,7.57602359977,0,738,17.456242
59368,Werne,51.67836249,7.62620417267,5,29659,76.104433
57638,Neitersen,50.6686233518,7.59061995189,0,1354,10.313851
48369,Saerbeck,52.179437255,7.63818966593,6,7164,59.019042
45289,Essen,51.4199429294,7.11366529022,3,9512,6.34326
66583,Spiesen-Elversberg,49.3128472178,7.15112455121,1,13507,11.430562
53227,Bonn,50.7232144922,7.15679112753,8,17519,10.032694
42109,Wuppertal,51.2766469377,7.14820371497,2,14208,4.211998
44652,Herne,51.5259436767,7.17463584791,3,11727,3.624305
66440,Blieskastel,49.2153723137,7.26376958796,7,21247,108.328717
26721,Emden,53.3832041637,7.20690576352,12,16695,8.514463
66539,Neunkirchen,49.3219215317,7.21958103132,0,12273,25.924962
45663,Recklinghausen,51.5796597319,7.23357041767,2,22723,7.716275
66450,Bexbach,49.3617319405,7.26532800692,2,18054,31.229146
56865,Blankenrath u.a.,50.0387146937,7.28590254566,0,3097,24.444095
44805,Bochum,51.5120290258,7.27808836328,4,27532,12.765708
66909,Herschweiler-Pettersheim,49.4413891245,7.43474356766,3,7428,61.095465
35719,Angelburg,50.8118709167,8.43558846058,0,3491,16.812779
78050,Villingen-Schwenningen,48.0573454177,8.44089327632,2,14644,8.701038
78737,Fluorn-Winzeln,48.2926740461,8.47497559147,0,3124,24.553094
59955,Winterberg,51.2057364796,8.51816049969,18,13003,147.931691
65931,Frankfurt am Main,50.0903279765,8.50241930436,0,20597,9.403027
68753,Waghäusel,49.2309855303,8.53635128924,2,20043,42.849801
35625,Hüttenberg,50.5090635765,8.5639239583,0,10544,41.053907
32130,Enger,52.1387072151,8.55375553218,6,20511,41.199082
68549,Ilvesheim,49.478110944,8.56705418021,2,8476,5.888073
61449,Steinbach (Taunus),50.1707567903,8.57056490745,2,10058,4.42876
27476,Cuxhaven,53.848270221,8.62133712301,6,10106,44.643606
33758,Schloß Holte-Stukenbrock,51.8899140067,8.64831933749,6,26473,67.534501
64404,Bickenbach,49.7615783791,8.59847738457,1,5432,9.361772
76694,Forst,49.1606756703,8.58702376553,11,7717,11.485763
76669,Bad Schönborn,49.2133964012,8.64257556005,7,12168,24.070328
32584,Löhne,52.1991773848,8.72244365717,3,39812,59.466634
75172,Pforzheim,48.8908534889,8.68426211153,5,13892,1.678471
35396,Gießen,50.6146164422,8.7037946708,0,17812,14.603736
27755,Delmenhorst,53.0371232901,8.67017426347,5,16876,18.938356
32832,Augustdorf,51.9013008981,8.75597758009,2,9666,42.033416
21776,Wanna,53.7241504937,8.77935121388,0,2301,53.936115
69251,Gaiberg,49.3636395098,8.7389821807,1,2336,4.137183
33189,Schlangen,51.8366166169,8.82976898296,7,8906,75.928014
78586,Deilingen,48.1697496318,8.78747377766,0,1743,10.876416
64689,Grasellenbach,49.6258489901,8.84310365204,4,3805,22.78988
74931,Lobbach,49.3745658888,8.88402589151,2,2347,14.917318
35287,Amöneburg,50.7730989311,8.92490538456,1,5107,44.5436
71155,Altdorf,48.6083533832,9.00256883463,4,4543,18.12501
25853,Ahrenshöft,54.5892454764,9.06821458851,1,2520,39.613533
63762,Großostheim,49.9157723218,9.06483489515,1,16313,44.30555
25860,Horstedt,54.5284409644,9.08916079087,2,1527,26.050103
34632,Jesberg,50.9914655894,9.12973440592,0,2488,49.927787
63584,Gründau,50.2364461924,9.15417867586,6,14359,67.763867
88662,Überlingen,47.8198543222,9.22563387135,9,21526,58.630289
63939,Wörth a.Main,49.7819433503,9.13973378088,0,4750,15.9006
25873,Rantrum,54.4494197212,9.15462891703,3,2306,24.499195
63739,Aschaffenburg,49.9757085212,9.16479561478,12,19687,7.26963
63688,Gedern,50.4123555982,9.21368556457,5,7605,75.087988
34628,Willingshausen,50.8646180999,9.21391197448,0,5102,59.87996
74376,Gemmrigheim,49.0255402457,9.16786211616,0,3904,8.128702
63589,Linsengericht,50.1682667033,9.21702649429,5,9876,29.884861
70176,Stuttgart,48.7773245293,9.16170036856,5,15739,0.936464
21755,Hechthausen,53.6444335381,9.22095694683,0,3504,30.669498
72762,Reutlingen,48.4826743952,9.2149401,9,23067,9.100017
70629,Stuttgart/Leinfelden-Echterdingen,48.6883940868,9.19923294366,6,8,3.422386
63849,Leidersbach,49.899579884,9.2396571153,0,4883,24.503659
74076,Heilbronn,49.1584048599,9.22855508645,12,16447,13.251318
34308,Bad Emstal,51.249638118,9.25304770648,5,5960,38.756324
88699,Frickingen,47.8226550689,9.26413238019,2,2882,26.409364
70374,Stuttgart,48.8108510447,9.24101414449,5,24823,5.316669
71686,Remseck am Neckar,48.8774611127,9.2662791876,5,23086,22.778602
21737,Wischhafen,53.7686316323,9.30969649011,1,3079,27.045009
31558,Hagenburg,52.42948394,9.3244742895,2,4527,15.972354
27308,Kirchlinteln,52.9292347003,9.36103493928,1,10213,174.480871
74232,Abstatt,49.0728938233,9.30448534632,2,4421,8.850245
24896,"Treia, Ahrenviölfeld",54.5187028056,9.31619036022,1,1506,21.964662
34317,Habichtswald,51.3277204529,9.33331412544,0,5118,28.171879
71717,Beilstein,49.0566708652,9.34429281919,0,6006,21.949529
72664,Kohlberg,48.5612592609,9.33264555146,0,2283,4.274326
27336,"Rethem (Aller), Häuslingen, Frankenfeld",52.7676995735,9.39112245785,2,3734,71.96533
71409,Schwaikheim,48.874893033,9.35262550562,2,9290,9.176973
21702,Ahlerstedt,53.3918771739,9.43995481387,2,5056,62.312152
88348,"Bad Saulgau, Allmannsweiler",48.0128366361,9.5082081553,7,17404,101.418797
88376,Königseggwald,47.9278783415,9.42728175851,0,654,6.283628
31637,Rodewald,52.677669878,9.47154525053,1,2561,59.955731
36367,Wartenberg,50.6223771027,9.45533210972,1,3981,38.567906
88374,Hoßkirch,47.9457032528,9.45902556155,0,756,15.857368
74538,Rosengarten,49.0605467763,9.70733531153,0,5091,30.724751
37217,Witzenhausen,51.3521347576,9.77369441182,0,3059,43.886516
30169,Hannover,52.3640570506,9.7333575693,15,9935,3.011029
89180,Berghülen,48.4642798973,9.77216808055,0,1929,26.107198
97786,Motten,50.3875743341,9.77007990281,0,1761,23.726224
24576,Bad Bramstedt,53.9141059021,9.87443138149,4,17573,82.941492
30916,Isernhagen,52.4566089728,9.85035024282,8,22746,59.92918
24366,Loose,54.5230748631,9.88512077428,0,783,13.14263
97792,Riedenberg,50.3219284029,9.88496011497,1,1002,13.224916
74426,Bühlerzell,49.0266470171,9.89513136566,0,2109,49.299441
22769,Hamburg,53.5662146412,9.94595352716,8,16433,1.563991
31141,Hildesheim,52.1280312103,9.98914431226,3,19164,13.589548
97243,Bieberehren,49.5080216642,10.0163580936,0,972,14.756231
24109,Melsdorf,54.317862641,10.0496641379,4,23256,12.471667
22851,Norderstedt,53.6984170025,10.0420899273,7,10463,12.736334
24625,Großharrie,54.130615072,10.0684379354,0,913,25.874441
73489,Jagstzell,49.0289956045,10.1203230415,1,2352,37.937415
36460,"Krayenberggemeinde, Frauensee",50.848473657,10.1108428413,0,5536,32.100396
21442,Toppenstedt,53.2722497846,10.1017079042,0,2128,29.176203
89518,Heidenheim an der Brenz,48.6855857782,10.1319149845,6,13551,6.705173
22117,Hamburg,53.5482365136,10.1351375059,0,24207,7.915292
89293,Kellmünz a.d. Iller,48.1289887339,10.1367684638,0,1360,8.537525
97654,Bastheim,50.3947003719,10.1781019335,1,2161,41.603463
31246,Lahstedt,52.2441611028,10.2280780613,0,10154,43.654597
24146,Kiel,54.2857825777,10.1900627441,0,10760,4.279424
37197,Hattorf,51.6452589706,10.2440046502,0,4218,28.988959
97456,Dittelbrunn,50.1119323845,10.2058888887,1,7104,23.87213
97532,Üchtelhausen,50.1217242659,10.2839084409,0,3892,62.120051
89312,Günzburg,48.4661717119,10.2802294518,14,19457,55.402886
87761,Lauben,48.0652852066,10.2852661617,0,1344,18.417755
29364,Langlingen,52.5038122285,10.2608255921,0,2270,33.454777
87784,Westerheim,48.023842101,10.2978647059,0,2100,21.111441
23813,Nehms,54.0174976325,10.3332250628,0,1214,25.965834
86489,Deisenhausen,48.2638038472,10.3266900563,0,1469,11.675317
97529,Sulzheim,49.9431746069,10.3440281024,0,1983,26.754396
36448,Bad Liebenstein,50.8291727178,10.3603796943,3,8087,48.670436
22929,"Hamfelde, Kasseburg, Köthel, Rausdorf, Schönberg",53.5908867407,10.3244101803,0,3720,38.921746
99848,Wutha-Farnroda,50.9408812258,10.392571571,2,6348,36.806116
23847,Lasbek,53.7525301614,10.4813153317,0,10322,128.227611
73467,Kirchheim am Ries,48.8810126737,10.4036824842,0,1890,21.042524
89349,Burtenbach,48.3468840358,10.4597083193,0,3311,37.579087
24321,Lütjenburg,54.3144674195,10.5615094713,9,11047,124.483181
87647,Unterthingau,47.7644747578,10.4914228922,0,3495,61.615711
23820,Pronstorf,53.9533866558,10.4965853682,0,1650,36.334296
21379,"Scharnebeck, Echem, Lüdersburg, Rullstorf",53.3044203736,10.5408748271,3,6906,79.795885
99891,Tabarz/ Thür. Wald,50.8639643735,10.5024250754,2,4031,21.285964
87663,Lengenwang,47.6964675233,10.5981755094,0,1389,19.633836
87651,Bidingen,47.8220469812,10.7198464531,0,1650,36.331149
23911,Ziethen,53.7235880287,10.7079796401,1,4517,85.965246
91315,Höchstadt a.d.Aisch,49.714860198,10.8336639259,7,13142,71.289429
38899,Oberharz am Brocken,51.674351568,10.8544399466,1,3741,109.608235
86857,Hurlach,48.1201026391,10.8265996446,1,1641,17.164837
96179,Rattelsdorf,50.0376498986,10.8808608956,2,4531,39.532734
86157,Augsburg,48.3614475786,10.8654734233,0,20873,3.294034
86937,Scheuring,48.1602084919,10.8894252825,1,1879,21.218721
99092,Erfurt,50.9768305484,10.9446804666,5,18050,35.902992
86154,Augsburg,48.3942722054,10.8786844609,3,19318,4.298682
96250,Ebensfeld,50.0638401942,10.9612153205,0,5577,71.1094
96050,Bamberg,49.8812007183,10.9289759666,5,17628,16.22115
86704,Tagmersheim,48.8228015754,10.9639162029,0,1051,16.001814
98746,Katzhütte,50.5265157908,11.0343912758,0,2064,49.785745
99097,Erfurt,50.9272012785,11.0599434973,2,16273,23.676445
99610,Sömmerda,51.155168091,11.1502203867,3,21561,108.921017
67813,"Schwarzengraben, St. Alban, Gerbach",49.68026168,7.87430966229,1,853,12.872683
79664,Wehr,47.6255263874,7.91509868437,3,12594,35.654994
49504,Lotte,52.3003939953,7.92888100061,8,13645,37.718349
57520,"Emmerzhausen, Niederdreisbach, Steinebach",50.7346163183,7.85290517536,0,10769,60.963893
77652,Offenburg,48.5029601977,7.94229675561,8,17351,22.056889
79737,Herrischried,47.673365942,7.99211514072,2,2684,37.460825
77791,Berghaupten,48.4026735429,7.97632157832,2,2371,9.663301
65307,Bad Schwalbach,50.1344521542,8.04585163073,2,10396,40.231584
79215,"Elzach, Biederbach",48.185618604,8.0832577642,1,8849,106.595007
79297,Winden im Elztal,48.1428982081,8.03975605295,1,2848,21.941431
56479,Oberrod u.a.,50.6155759392,8.07834672969,0,11978,105.196237
76833,Frankweiler,49.2327657179,8.08025887336,2,3760,17.680665
49413,Dinklage,52.6607895388,8.10019370907,6,12662,72.634761
67433,Neustadt an der Weinstraße,49.3546016375,8.15519970954,15,22488,17.499538
76865,Insheim,49.1475221211,8.14962836863,2,3653,17.330155
76768,Berg,48.9823392651,8.20458903181,1,2043,6.732976
76770,Hatzenbühl,49.1157163937,8.23990075905,0,2884,7.714766
26209,Hatten,53.0424980166,8.32165967032,3,13778,102.924109
67256,Weisenheim am Sand,49.4900656679,8.11298329373,0,4238,13.716862
67586,Hillesheim,49.7799552074,8.25240555648,0,641,5.713531
57334,Bad Laasphe,50.9270879851,8.34768629088,4,14214,135.992022
76761,Rülzheim,49.1524788022,8.28154481675,2,7788,16.634776
35713,Eschenburg,50.8103389189,8.36276398634,1,10292,45.839347
55299,Nackenheim,49.9106029234,8.33327407894,2,5512,8.611148
65239,Hochheim am Main,50.0239006379,8.36850571396,8,16887,19.21464
59558,Lippstadt,51.6858595951,8.41182323415,2,15243,50.248429
67069,Ludwigshafen am Rhein,49.5240003488,8.39342429478,0,22425,9.055348
76332,Bad Herrenalb,48.7965967115,8.44176559368,1,7158,33.028164
24805,Hamdorf,54.2258690015,9.49099382399,0,1471,36.170836
36287,Breitenbach am Herzberg,50.7767746126,9.5006316455,1,1803,42.506805
71560,Sulzbach an der Murr,49.0118782531,9.51105650519,1,5188,40.346826
73669,Lichtenwald,48.7462541857,9.48317809804,0,2423,10.807679
21720,Grünendeich,53.5549162673,9.60366709014,1,5593,25.842836
73035,Göppingen,48.6985113604,9.63417083672,4,19575,28.435984
97277,Neubrunn,49.7222369199,9.66453784422,0,2207,26.503775
24357,Fleckeby u.a.,54.4735662927,9.69343839085,0,3145,32.525072
30855,Langenhagen,52.4702747671,9.69620679992,10,19799,58.081449
7338,Kaulsdorf,50.5824242582,11.4922910277,0,6072,118.031974
82069,Schäftlarn,47.9963106345,11.4387483916,0,3156,11.646201
19055,Schwerin,53.6577808007,11.4344908717,2,11937,36.403282
85107,Baar-Ebenhausen,48.6804719581,11.4732216753,0,4990,14.790934
85053,Ingolstadt,48.7463063408,11.4641213885,8,15592,14.750752
91224,Pommelsbrunn,49.5049547855,11.5258910945,4,5176,50.050019
85092,Kösching,48.8361916851,11.5194447784,2,8956,51.838897
6279,"Schraplau, Farnstädt",51.4322290416,11.601943029,0,2825,34.234113
92268,Etzelwang,49.5346518723,11.5819553044,0,1385,21.669842
85129,Oberdolling,48.8362204094,11.5973340367,0,1188,19.303112
80802,München,48.1592571919,11.5911310533,13,9333,1.561202
81927,München,48.159039191,11.6373981048,2,22877,3.554777
93155,Hemau,49.0453348621,11.764114755,1,8463,122.323599
39291,"Möckern, Schermen, Nedlitz u.a.",52.1958523292,11.9899270498,6,18928,473.076967
7926,Gefell,50.4443153607,11.8260480117,0,2665,45.057342
83629,Weyarn,47.8580582692,11.8149478083,2,3276,46.621695
18249,"Bernitt, Qualitz, Warnow, Zernin u.a.",53.8116867436,11.9058004644,0,3769,156.088096
7629,Hermsdorf,50.8733143054,11.8567883185,0,10646,29.050073
7613,"Crossen, Heideland u.a.",50.9874433425,11.9394613544,0,5510,69.361796
95683,Ebnath,49.9533161048,11.9386623857,2,1337,11.064579
83080,Oberaudorf,47.6636495766,12.1138052417,4,4872,58.359853
16866,"Gumtow, Kyritz u.a.",52.9831189693,12.3232149188,5,13406,410.621586
8523,Plauen,50.4715430893,12.1064354782,1,19023,7.088085
92670,Windischeschenbach,49.8116027424,12.1559576628,9,5197,36.361743
83139,Söchtenau,47.9194172696,12.230620061,1,2598,25.603306
84166,Adlkofen,48.5363483827,12.2823158742,1,3830,47.884629
6842,Dessau-Roßlau,51.7895794436,12.3002644893,0,13398,36.177392
95652,Waldsassen,50.0152045038,12.3155826123,1,6946,66.526126
83093,Bad Endorf,47.9040918281,12.3013113033,3,7906,40.191454
6803,Bitterfeld-Wolfen,51.6505084292,12.2914478633,0,2521,7.711556
6808,Bitterfeld-Wolfen,51.5974476397,12.3329630121,0,2896,14.000455
17214,Nossentiner Hütte,53.5334003853,12.3749067687,1,1593,95.276904
8459,Neukirchen/Pleiße,50.7831459235,12.3866904374,0,4302,16.908304
4277,Leipzig,51.3049689215,12.3709154957,0,21625,8.225682
95698,Neualbenreuth,49.9662045678,12.4249681137,3,1427,50.160466
8262,Muldenhammer,50.4286772036,12.4951838283,0,3340,56.09432
94345,Aholfing,48.9371354711,12.4774336877,0,1712,21.674893
93491,Stamsried,49.2741295474,12.5235483294,0,2185,43.453103
8328,Stützengrün,50.5370600293,12.5557836671,0,3585,28.21695
