plz,name,lat,long,ev_count,rev_ev_count
58099,Hagen,51.37133519,7.53261950409,4,1
44534,Lünen,51.6314934273,7.51267420753,3,2
51645,Gummersbach,50.9989729573,7.56183918288,4,1
26489,Ochtersum,53.6102778485,7.52541360016,0,5
44267,Dortmund,51.4579490964,7.52426319952,1,4
66851,"Mittelbrunn, Queidersbach u.a.",49.3973795092,7.49640381,0,5
55566,Sobernheim,49.7805490905,7.62330184717,7,0
52531,Übach-Palenberg,50.9268852653,6.10426703799,3,2
47626,Kevelaer-Winnekendonk,51.5936190016,6.31517817659,0,5
41748,Viersen,51.2466575165,6.40643589665,2,3
47804,Krefeld,51.3129003096,6.52359304768,4,1
47829,Krefeld,51.3699253244,6.64128889365,0,5
54533,"Bettenfeld, Niederöfflingen u.a.",50.0534041738,6.71425485118,5,0
66763,Dillingen/Saar,49.3660120769,6.73228898116,7,0
46045,Oberhausen,51.4670366982,6.85933332244,6,0
50767,Köln,51.0028292786,6.8853573964,1,4
54426,Malborn,49.7674851769,7.02571986821,0,5
53518,"Adenau, Kottenborn u.a.",50.3800206489,6.94413500969,5,0
66128,Saarbrücken,49.2290488579,6.9152420597,1,4
50677,Köln,50.9214860552,6.95048094656,3,2
45147,Essen,51.4396607191,6.98399279962,13,0
42489,Wülfrath,51.2913878424,7.03583542666,3,2
45897,Gelsenkirchen,51.5659188083,7.07287261005,3,2
51375,Leverkusen,51.031563663,7.05802657756,0,5
54411,"Deuselbach, Hermeskeil, Rorodt",49.657258842,6.9472897871,8,0
67678,Mehlingen,49.4887896826,7.84754016216,0,5
56424,"Mogendorf, Ebernhahn, Staudt u.a.",50.4906112758,7.74937514198,1,4
67727,Lohnsfeld,49.5471186675,7.84854817406,0,5
79110,Freiburg im Breisgau,48.019882229,7.81051644532,5,0
49632,Essen (Oldenburg),52.7265922455,7.96247558165,3,2
56368,Katzenelnbogen,50.2703577811,7.95476077386,0,5
79713,Bad Säckingen,47.5681040201,7.95656651646,7,0
67808,"Steinbach, Weitersweiler, Bennhausen, Mörsfeld, Würzweiler, Ruppertsecken u.a.",49.7392165098,7.92962984295,0,5
79868,Feldberg,47.8648725037,8.06750575944,3,2
67316,Carlsberg,49.4902037584,8.03243874894,0,5
55237,Flonheim,49.7872787069,8.04658568106,0,5
65558,Burgschwalbach,50.3945366259,8.00784565608,1,4
79263,Simonswald,48.0875195476,8.08867228736,1,4
79874,Breitnau,47.9397590364,8.08697000393,2,3
76872,Steinweiler,49.0925385284,8.13745008229,0,5
59302,Oelde,51.8182119714,8.1668408858,12,0
42653,Solingen,51.2017443037,7.08175360777,5,0
56823,Büchel,50.1800839137,7.08333753335,0,5
53474,Bad Neuenahr-Ahrweiler,50.5296751668,7.12512246982,5,0
53115,Bonn,50.7233508885,7.08954526484,4,1
56858,Peterswald-Löffelscheid u.a.,50.068606037,7.27413860105,1,4
56745,Bell,50.3971502477,7.1716294318,1,4
45529,Hattingen,51.3693308667,7.16259137038,2,3
42929,Wermelskirchen,51.1118317587,7.21794559818,8,0
44791,Bochum,51.49006103,7.25106288088,5,0
42899,Remscheid,51.2089697534,7.23447635144,2,3
55483,Dickenschied u.a.,49.8713629135,7.44609196267,0,5
26624,Südbrookmerland,53.4724916189,7.33338157181,2,3
59425,Unna,51.5533827819,7.69804881495,4,1
79540,Lörrach,47.6012655019,7.6693436595,2,3
57539,Fürthen,50.7498189017,7.65933655219,0,5
56271,Kleinmaischeid,50.4990462794,7.5986119858,0,5
49599,Voltlage,52.4379661655,7.73904560101,2,3
49545,Tecklenburg,52.2232280437,7.80612777288,5,0
56244,"Freilingen, Freirachdorf u.a.",50.6148613829,7.77209217142,1,4
57644,Hattert,50.6520227731,7.76078544493,0,5
67655,Kaiserslautern,49.4405585228,7.76678546071,8,0
67824,Feilbingert,49.7775626575,7.78973530234,0,5
48499,Salzbergen,52.3202590736,7.35273893568,5,0
26810,Westoverledingen,53.1479735876,7.44445131748,2,3
48329,Havixbeck,51.9743367497,7.44290968496,2,3
66894,Bechhofen,49.351381676,7.46385596572,1,4
44227,Dortmund,51.4656134176,7.42157902565,5,0
88147,Achberg,47.6223698241,9.71398197831,0,5
73326,Deggingen,48.6075987258,9.72081605012,2,3
25482,Appen,53.6522754151,9.73716360085,0,5
97980,Bad Mergentheim,49.4546667426,9.77371518501,15,0
36132,Eiterfeld,50.7648178821,9.81468459677,5,0
73333,Gingen an der Fils,48.6574631905,9.77560757987,0,5
30175,Hannover,52.3797186402,9.76663066603,7,0
88454,Hochdorf,48.0251399634,9.79200574879,0,5
30625,Hannover,52.3765401703,9.80133256123,14,0
97270,"Kist, Irtenberger Wald",49.7332883486,9.82275179604,0,5
97250,Erlabrunn,49.8585193506,9.84034143795,1,4
25451,Quickborn,53.7335122634,9.90382299743,10,0
97256,Geroldshausen,49.6816347364,9.88830689176,0,5
29313,Hambühren,52.621845223,9.94167380465,5,0
22609,Hamburg,53.557971354,9.84981238837,9,0
31195,Lamspringe,51.9738193722,9.99825892273,1,4
97705,Burkardroth,50.2807084454,9.97221121276,1,4
36208,Wildeck,50.9539820599,9.9819273906,0,5
88167,Röthenbach (Allgäu),47.6252985562,10.0085477141,5,0
89195,Staig,48.3007969217,9.98568340159,3,2
73457,Essingen,48.7933720081,10.0215918167,0,5
20354,Hamburg,53.5587650568,9.99411644357,11,0
97288,Theilheim,49.7595777964,10.0331107686,0,5
89165,Dietenheim,48.2237869668,10.0512768492,1,4
97708,Bad Bocklet,50.2733678051,10.0692834444,1,4
22089,Hamburg,53.5678767874,10.0479947022,7,0
97241,"Bergtheim, Oberpleichfeld",49.8980095091,10.0867444815,1,4
37191,Katlenburg-Lindau,51.6650688207,10.0974073376,2,3
97252,Frickenhausen,49.6791351962,10.1020939073,0,5
22043,Hamburg,53.569210499,10.104855809,7,0
87544,Blaichach,47.5024675553,10.1858423565,1,4
23866,Nahe,53.7968652659,10.1314860257,1,4
99830,Treffurt/Ifta,51.1088879943,10.2109616112,0,5
97509,Kolitzheim,49.9300563176,10.2528920751,2,3
38277,Heere,52.0565356989,10.2380636537,0,5
89347,Bubesheim,48.4268524319,10.2477688289,0,5
87743,Egg an der Günz,48.08858708,10.2725914623,0,5
99826,Mihla,51.0789033278,10.3445586234,0,5
37412,"Herzberg, Elbingerode, Hörden",51.7001542179,10.4776969856,3,2
97453,Schonungen,50.0773174085,10.3488453927,6,0
97633,Sulzfeld,50.3115900368,10.444054335,5,0
91602,Dürrwangen,49.10270139,10.3792392277,0,5
22952,Lütjensee,53.6525726927,10.3717348405,0,5
21335,Lüneburg,53.2183616956,10.3867639579,16,0
29581,Gerdau,52.9635498641,10.4228022494,0,5
91477,Markt Bibart,49.6995055107,10.3622781734,2,3
97497,Dingolshausen,49.910437908,10.3977636336,1,4
87757,Kirchheim in Schwaben,48.1815823318,10.4618948452,0,5
21365,Adendorf,53.2864400321,10.4547087074,3,2
23619,Zarpen,53.8778543173,10.5239472115,2,3
38642,Goslar,51.9258073606,10.4384377313,0,5
98530,"Suhl, Marisfeld, Rohr u.a.",50.5749360972,10.5687523465,1,4
89368,Winterbach,48.4659570533,10.4988554099,0,5
99713,Ebeleben,51.304798628,10.6677618575,1,4
29392,Wesendorf,52.587166918,10.5362392833,0,5
38124,Braunschweig,52.2138007466,10.5248685807,3,2
64521,Groß-Gerau,49.9108991982,8.47697404584,6,0
64569,Nauheim,49.9514026977,8.46851269061,3,2
76227,Karlsruhe,48.9926433511,8.47444295376,9,0
76676,Graben-Neudorf,49.1550008423,8.47937806756,0,5
33142,Büren,51.5550300986,8.58448998088,10,0
35088,Battenberg,51.0203546571,8.60394438485,0,5
65929,Frankfurt am Main,50.0998393152,8.53474536203,5,0
27580,Bremerhaven,53.5892844363,8.56383114629,2,3
32051,Herford,52.1070347312,8.6157346568,6,0
35452,Heuchelheim,50.5877904483,8.61822281117,1,4
60528,Frankfurt am Main,50.0688726995,8.64050283772,4,1
61239,Ober-Mörlen,50.3618378174,8.66831460507,4,1
63225,Langen,49.9922467403,8.66165906513,6,0
35440,Linden,50.5324270057,8.66844903378,3,2
32052,Herford,52.0893677372,8.6601794427,7,0
64291,Darmstadt,49.9274023808,8.67371562506,4,1
64686,Lautertal (Odenwald),49.7164264177,8.70954682417,2,3
78532,Tuttlingen,47.9775344944,8.80925039354,9,0
32479,Hille,52.3320565668,8.76971047603,1,4
75175,Pforzheim,48.8844815713,8.72358241322,5,0
60385,Frankfurt am Main,50.1247894857,8.71378748965,2,3
72369,Zimmern unter der Burg,48.2208616136,8.72167347704,0,5
35460,Staufenberg,50.6627333841,8.76366047619,1,4
35423,Lich,50.5105172261,8.83040483049,6,0
63322,Rödermark,49.9736108603,8.80674535773,4,1
35091,Cölbe,50.8747651597,8.81827874966,2,3
35085,Ebsdorfergrund,50.7301799292,8.83924541748,2,3
75233,Tiefenbronn,48.8158403586,8.8105816085,2,3
64839,Münster,49.9268251218,8.84516613203,6,0
32469,Petershagen,52.3999185054,8.99689762974,4,1
63477,Maintal,50.1534540611,8.83554140898,13,0
25920,"Risum-Lindholm, Stedesand",54.7493738197,8.86721160038,1,4
71297,Mönsheim,48.8584224191,8.86820213869,2,3
74927,Eschelbronn,49.3189030643,8.86247328861,2,3
78337,Öhningen,47.6785287581,8.90233411527,1,4
72362,Nusplingen,48.1252278717,8.90650362314,2,3
64756,Mossautal,49.6446594067,8.91582480006,0,5
78359,Orsingen-Nenzingen,47.8398495757,8.93365321477,1,4
34474,Diemelstadt,51.4747756566,8.99501758378,3,2
25792,Neuenkirchen,54.2386087222,8.99858878963,0,5
74858,Aglasterhausen,49.362540882,8.99266947414,0,5
25926,Ladelund,54.845587599,9.02636118396,0,5
34549,Edertal,51.1634524083,9.07549691088,5,0
72458,Albstadt,48.1986061781,9.0271089656,6,0
69437,Neckargerach,49.3985513226,9.06951262698,0,5
63741,Aschaffenburg,49.9803769138,9.11704621909,9,0
70565,Stuttgart,48.7163494267,9.12384207059,9,0
74081,Heilbronn,49.112857299,9.18433132607,1,4
63834,Sulzbach am Main,49.9151511611,9.1905544394,0,5
27313,Dörverden,52.842612917,9.26821299314,2,3
71638,Ludwigsburg,48.8877876655,9.20797821353,15,0
25850,"Behrendorf, Bondelum",54.5604311031,9.24861135666,0,5
72766,Reutlingen,48.4796838164,9.22027038661,11,0
63863,Eschau,49.830573813,9.28865545985,0,5
25721,Eggstedt,54.0567621624,9.2627265216,0,5
72655,Altdorf,48.5927105417,9.27611403195,0,5
25576,Brokdorf,53.8740136217,9.3210277411,0,5
34626,Neukirchen (Knüll),50.876850645,9.36103372909,5,0
71394,Kernen im Remstal,48.7915979789,9.32946138291,4,1
25557,"Hanerau-Hademarschen, Seefeld u.a.",54.1149579193,9.40726765181,0,5
71546,Aspach,48.9901141346,9.39042401577,2,3
25599,Wewelsfleth,53.8477190301,9.38824012937,0,5
25799,Wrohm,54.2161772223,9.40257106177,0,5
97877,Wertheim,49.7431631426,9.52227761781,5,0
73265,Dettingen unter Teck,48.6116946271,9.44369582236,0,5
74613,Öhringen,49.210470331,9.50162487498,11,0
23999,Insel Poel,53.9934843928,11.4362474032,1,4
91241,Kirchensittenbach,49.5705696696,11.4243796539,0,5
80999,München,48.1909245518,11.4518766117,5,0
95503,Hummeltal,49.8846870984,11.4993273673,0,5
19065,Pinnow,53.6200921378,11.5511750932,0,5
81373,München,48.1228899438,11.5305612528,8,0
81369,München,48.1107528711,11.5310670275,5,0
7778,Neuengönna u.a.,50.9846446148,11.7157814008,0,5
92281,Königstein,49.6105704912,11.6411385256,1,4
80805,München,48.1740152523,11.6068080416,9,0
7389,Ranis,50.6374776782,11.5697468103,0,5
95497,Goldkronach,50.0061853814,11.7029959535,0,5
7907,Schleiz,50.5915353357,11.8093884014,0,5
83684,Tegernsee,47.7146339613,11.7640529645,6,0
39114,Magdeburg,52.1047038739,11.6988269145,6,0
91809,Wellheim,48.8189599469,11.0996587494,2,3
82278,Althegnenberg,48.2259196134,11.070433653,0,5
86697,Oberhausen,48.7081666692,11.1098054281,0,5
82399,Raisting,47.9044629379,11.1059475156,0,5
91090,Effeltrich,49.6629679596,11.1079113073,1,4
96523,Steinach,50.4335641842,11.1610181021,2,3
82294,Oberschweinbach,48.2405231738,11.1466548492,0,5
96275,Marktzeuln,50.1651383604,11.1776916856,0,5
85250,Altomünster,48.3896817928,11.2378633044,1,4
90584,Allersberg,49.2430751906,11.2374410712,4,1
82432,Walchensee,47.5931516225,11.3214907458,0,5
82393,Iffeldorf,47.786885878,11.3230300875,0,5
19077,Rastow,53.4726994625,11.4170741051,0,5
6333,"Hettstedt, Endorf",51.6457949104,11.4972459688,0,5
96364,Marktrodach,50.2455373198,11.4126038255,1,4
89440,Lutzingen,48.6698617371,10.5391505981,0,5
86441,Zusmarshausen,48.4060997439,10.5963372628,2,3
29396,Schönewörde,52.6196289711,10.7098674424,0,5
91747,Westheim,49.0023898561,10.6783052709,0,5
29599,Weste,53.0529676352,10.6981447827,0,5
86845,Großaitingen,48.2313345955,10.7468331964,2,3
86459,Gessertshausen,48.3034678571,10.7146344692,0,5
23552,Lübeck,53.8669616001,10.6880618486,5,0
86853,Langerringen,48.1259550545,10.7486057923,3,2
99955,Bad Tennstedt,51.1653643042,10.8291938549,2,3
38440,Wolfsburg,52.4257933182,10.7675931515,26,0
29473,Göhrde,53.1191767741,10.8820357702,0,5
91734,Mitteleschenbach,49.2120973192,10.8025623064,1,4
86899,Landsberg a. Lech,48.0348345064,10.861057729,14,0
96158,Frensdorf,49.8106543872,10.8703215041,1,4
91793,Alesheim,49.0391218714,10.8687479544,0,5
86971,Peiting,47.8010674208,10.9352322925,1,4
86946,Vilgertshofen,47.9585186832,10.9168243645,0,5
86641,Rain,48.6675005474,10.9549294746,0,5
38350,Helmstedt,52.23591722,10.9959008227,8,0
39393,"Hötensleben, Völpke, Ottleben u.a.",52.0836821892,11.0779446039,1,4
96110,Scheßlitz,49.980777266,11.0501720062,4,1
96487,Dörfles-Esbach,50.2870085789,10.9991551905,0,5
99102,"Rockhausen, Klettbach",50.9111676327,11.1443737869,0,5
59872,Meschede,51.3381437954,8.2476652835,8,0
67483,Edesheim,49.289358008,8.01298498182,3,2
76863,Herxheim,49.1449431281,8.21675490008,3,2
65197,Wiesbaden,50.0822065553,8.20775522949,3,2
35745,Herborn,50.6786365984,8.28596764677,5,0
67596,Dittelsheim-Heßloch,49.7477807899,8.24426807532,0,5
65193,Wiesbaden,50.1104856163,8.23603574424,4,1
67246,Dirmstein,49.5726645718,8.25133499813,0,5
67377,Gommersheim,49.2977157799,8.03334548427,0,5
55294,Bodenheim,49.9290047153,8.30802571815,3,2
78730,Lauterbach,48.2359331335,8.32285921465,3,2
67368,Westheim (Pfalz),49.239331853,8.32324938123,1,4
67360,Lingenfeld,49.2446853358,8.35792371352,3,2
33330,Gütersloh,51.8974058696,8.37691158286,12,0
33824,Werther (Westf.),52.0836832867,8.41764831929,1,4
68647,Biblis,49.6881083609,8.42567555123,2,3
35236,Breidenbach,50.8778043575,8.43462216375,0,5
35606,Solms,50.5503066115,8.4153258233,1,4
25582,Hohenaspe,54.0061667193,9.52206515049,0,5
34127,Kassel,51.3357111169,9.48956175619,2,3
88273,Fronreute,47.8677555911,9.55468195062,1,4
34233,"Kassel, Fuldatal",51.3794420947,9.53443934896,1,4
24986,Mittelangeln,54.6782952542,9.59334569145,2,3
25491,Hetlingen,53.6101558993,9.61963128762,0,5
24787,Fockbek,54.3088311086,9.5857813921,3,2
74679,Weißbach,49.3127372029,9.60081145576,0,5
73547,Lorch,48.7972935505,9.67786000712,4,1
73092,Heiningen,48.6605671825,9.65623435478,0,5
19339,Plattenburg,52.9832988515,12.0462212952,0,5
85408,Gammelsdorf,48.5554748633,11.9367542053,0,5
83104,Tuntenhausen,47.9469676043,12.0147821008,1,4
84174,Eching,48.4864347798,12.0492929753,1,4
84034,Landshut,48.5281814576,12.090342363,3,2
83088,Kiefersfelden,47.6259801746,12.1270245701,2,3
83126,Flintsbach a. Inn,47.7044178838,12.1047140721,1,4
92637,"Weiden in der OPf., Theisseil",49.6747055043,12.1710697569,12,0
93107,Thalmassing,48.9074204297,12.1411199342,1,4
93057,Regensburg,49.051641659,12.1185446828,1,4
6862,Dessau-Roßlau,51.9186695238,12.2606816059,0,5
7980,Berga/Elster,50.7047072349,12.1107169169,0,5
92718,Schirmitz,49.6498244582,12.1765598,0,5
6794,Sandersdorf-Brehna,51.5976377478,12.1932556397,0,5
83083,Riedering,47.8395248779,12.2375450619,2,3
8233,Treuen,50.5397629239,12.3052014152,0,5
4463,Großpösna,51.2492557508,12.4741795872,0,5
83246,Unterwössen,47.7200519571,12.4713392678,4,1
83361,Kienberg,48.0402381984,12.4675062156,1,4
16868,Wusterhausen,52.9095402472,12.4716727164,8,0
83242,Reit im Winkl,47.6676438805,12.5210123436,5,0
92539,Schönsee,49.5129591532,12.5435869377,0,5
83301,Traunreut,47.9556305059,12.5824085881,2,3
94437,Mamming,48.6423880898,12.6024889929,1,4
84568,Pleiskirchen,48.3169129664,12.6288198467,1,4
6889,Wittenberg,51.9515948018,12.6638960651,0,5
8321,Zschorlau,50.5505339804,12.6450669843,0,5
14822,"Brück, Borkheide u.a.",52.2007261092,12.7658038972,3,2
83329,Waging a. See,47.937250329,12.7304498437,3,2
94342,Straßkirchen,48.836921007,12.7198101669,1,4
18374,Zingst a. Darß,54.4305103102,12.7822488491,4,1
84375,Kirchdorf a. Inn,48.2391717628,12.95769511,2,3
84347,Pfarrkirchen,48.4414385251,12.9576190625,6,0
9125,Chemnitz,50.7874696061,12.9392162663,0,5
9130,Chemnitz,50.8374859664,12.949840636,0,5
83487,Marktschellenberg,47.6830853984,13.0441954864,0,5
9573,"Leubsdorf, Gornau, Augustusburg",50.8046842337,13.1176043058,0,5
94572,Schöfweg,48.8354676116,13.2232010575,0,5
94532,Außernzell,48.7332165713,13.2214866782,0,5
17258,Feldberger Seenlandschaft,53.3323754135,13.4060476082,2,3
94536,Eppenschlag,48.8932316823,13.3035628121,0,5
10627,Berlin Charlottenburg,52.5079872168,13.302994626,4,1
13439,Berlin Märkisches Viertel,52.598534558,13.3587178838,2,3
13158,Berlin Rosenthal,52.593176538,13.3834467728,0,5
94034,Passau,48.5927756443,13.4396107882,1,4
18581,Putbus,54.3230530406,13.5341535961,1,4
13189,Berlin Pankow,52.5641769118,13.4218545961,4,1
12347,Berlin Britz,52.4508786548,13.4281564278,3,2
94065,Waldkirchen,48.735032619,13.603877888,2,3
94130,Obernzell,48.5732632242,13.6141909649,0,5
12559,Berlin Köpenick,52.4156274361,13.6619191222,0,5
17337,"Uckerland, Groß Luckow, Schönhausen",53.4543273912,13.7869695288,1,4
15712,Königs Wusterhausen,52.293846086,13.6997026289,0,5
15537,Erkner,52.4140931295,13.8659990769,7,0
1983,Großräschen,51.5937864151,13.9872039562,0,5
16303,Schwedt,53.0932468448,14.2590311293,25,0
16306,"Biesendahlshof, Berkholz-Meyenburg",53.1947412812,14.1656549471,0,5
15299,Müllrose,52.2041687427,14.4115024366,0,5
2899,"Ostritz, Schönau-Berzdorf",51.0387487195,14.906575637,0,5
24893,Taarstedt,54.571412684,9.69083242949,1,4
25355,Barmstedt,53.8019749431,9.77787632627,2,3
30171,Hannover,52.3658090054,9.75513105754,6,0
30659,Hannover,52.4171591155,9.83563810211,5,0
89160,Dornstadt,48.4846689321,9.89117734936,11,0
29303,"Bergen, Lohheide u.a.",52.7946065729,9.96063522108,2,3
24363,Holtsee,54.4011338015,9.86592194858,0,5
73111,Lauterstein,48.72012757,9.89112899909,1,4
36217,Ronshausen,50.9383118569,9.87782155408,1,4
25474,Ellerbek,53.6769166105,9.90627432482,0,5
29646,Bispingen,53.1169799106,9.99403287662,10,0
88171,Weiler-Simmerberg,47.576735993,9.91671717167,1,4
89081,Ulm,48.4385219587,9.97472206567,14,0
36214,Nentershausen,51.0085170605,9.94356922961,0,5
73560,Böbingen an der Rems,48.8174792916,9.92036371542,1,4
36115,"Hilders, Ehrenberg",50.5417950909,9.98682340606,1,4
73579,Schechingen,48.8739840256,9.9272680834,0,5
36266,Heringen,50.8900824976,9.97539674191,1,4
74592,Kirchberg an der Jagst,49.2030199916,9.97713865964,3,2
88477,Schwendi,48.1906210384,9.97841853082,1,4
22765,Hamburg,53.5555465619,9.93495942616,21,0
21109,Hamburg,53.4912330497,10.0284686875,5,0
88317,Aichstetten,47.8942030219,10.0605407728,4,1
31174,Schellerten,52.1701243147,10.0954635066,3,2
88450,Berkheim,48.046804731,10.069528638,3,2
24643,Struvenhütten,53.8665454058,10.0620834159,0,5
97650,Fladungen,50.5288079773,10.1415363932,0,5
73431,Aalen,48.8249355702,10.0907661981,6,0
29336,Nienhagen,52.5426456049,10.099997052,0,5
21435,Stelle,53.3807783943,10.1096944343,1,4
22179,Hamburg,53.6061908294,10.0837222474,1,4
22397,Hamburg,53.7039076767,10.1251144905,6,0
97258,Ippesheim,49.5849013626,10.1587777549,1,4
97490,Poppenhausen,50.1029010394,10.1453290098,2,3
89542,Herbrechtingen,48.5662855261,10.1545828918,4,1
97714,Oerlenbach,50.1492909245,10.1351863143,0,5
97702,Münnerstadt,50.2524333894,10.244756922,3,2
91631,Wettringen,49.2600786745,10.1663033556,1,4
74594,Kreßberg,49.1358840329,10.1911993887,2,3
87474,Buchenberg,47.7074512749,10.1951727493,3,2
87509,Immenstadt im Allgäu,47.5742299337,10.1952485944,3,2
31228,Peine,52.3513744599,10.2125648592,1,4
91610,Insingen,49.3127396909,10.1625879439,3,2
91620,Ohrenbach,49.4697617912,10.2137066728,3,2
97618,Hohenroth,50.3179202003,10.1310071076,3,2
97355,Kleinlangheim,49.7577023505,10.3383705168,7,0
87749,Hawangen,47.9729785187,10.2679865612,0,5
22962,Siek,53.6325875782,10.2834260214,0,5
21409,Embsen,53.1773761776,10.3301222111,1,4
38259,Salzgitter,52.0607515963,10.3896574757,13,0
86491,Ebershausen,48.2076685802,10.3158799099,0,5
87496,Untrasried,47.8454873214,10.3672829056,0,5
87466,Oy-Mittelberg,47.6485627313,10.4391369657,2,3
21406,"Melbeck, Barnstedt",53.1564390037,10.3861978857,1,4
23821,Rohlstorf,53.9621948386,10.398341773,0,5
23815,Geschendorf,53.9223352963,10.4632003588,0,5
86470,Thannhausen,48.2774390574,10.4787883358,1,4
99755,Ellrich,51.5693416583,10.6412856165,3,2
29576,Barum,53.0445800574,10.5268984149,0,5
91726,Gerolfingen,49.0489792003,10.5111108673,1,4
91099,Poxdorf,49.6674156297,11.0657933163,0,5
82293,Mittelstetten,48.2547709742,11.0993177508,0,5
6526,Sangerhausen,51.5180126937,11.2505420059,0,5
91077,Neunkirchen a. Brand,49.6219724151,11.1402222045,6,0
90530,Wendelstein,49.3458640813,11.1652278082,8,0
86633,Neuburg an der Donau,48.7363658232,11.1948978348,6,0
91338,Igensdorf,49.61607284,11.2252960204,1,4
91347,Aufseß,49.8942966372,11.2411922196,0,5
82395,Obersöchering,47.7460957811,11.2315966916,2,3
86576,Schiltberg,48.4558701148,11.24431677,0,5
39638,Gardelegen,52.5050900834,11.418191717,5,0
85114,Buxheim,48.814328594,11.2864358189,0,5
82387,Antdorf,47.7566719657,11.2999312247,0,5
82349,Pentenried,48.081307271,11.33651011,0,5
92360,Mühlhausen,49.1805187477,11.4298708777,5,0
19059,Schwerin,53.6376268134,11.3908064226,1,4
39448,Börde-Hakel,51.9532693205,11.3910883522,0,5
85120,Hepberg,48.8279101147,11.4604867712,4,1
19086,Plate,53.5555540532,11.4979397335,0,5
18230,"Rerik, Bastorf, Biendorf",54.0826840653,11.6773676146,1,4
92358,Seubersdorf i.d. OPf.,49.1552129705,11.6174936419,0,5
85088,Vohburg a.d. Donau,48.7695049197,11.6125015089,0,5
39122,Magdeburg,52.062565034,11.6526121353,0,5
85395,Attenkirchen,48.4970769325,11.7246897132,1,4
85635,Höhenkirchen-Siegertsbrunn,48.0202384334,11.7385217198,2,3
85622,Feldkirchen,48.1428176942,11.7498443577,2,3
39288,Burg,52.2845737121,11.8563469152,7,0
7922,Tanna,50.4907666063,11.8603158276,0,5
84106,Volkenschwand,48.6091327958,11.8628851657,0,5
85570,Markt Schwaben,48.2013353073,11.8732913311,2,3
6124,Halle/ Saale,51.4696299462,11.9309691011,0,5
93188,Pielenhofen,49.0774561772,11.976906764,0,5
92421,Schwandorf,49.3171184809,12.0833676539,11,0
95679,Waldershof,49.9521471988,12.0708333578,1,4
7548,Gera,50.8770213999,12.0393413319,0,5
83059,Kolbermoor,47.8430322464,12.0476068217,4,1
83024,Rosenheim,47.8688946893,12.1080324302,0,5
95701,Pechbrunn,49.969269895,12.1701845453,0,5
92721,Störnstein,49.7429355096,12.2031307752,0,5
8491,"Netzschkau, Limbach",50.596734796,12.2443231275,0,5
6868,Coswig (Anhalt),51.9869358792,12.3634429829,0,5
4209,Leipzig,51.3193213387,12.2946980348,0,5
83559,Gars a. Inn,48.1543326687,12.3326822853,0,5
93109,Wiesent,49.0278607738,12.3697024961,1,4
4356,Leipzig,51.4187554428,12.4333590841,0,5
4357,Leipzig,51.3787358712,12.4105881165,0,5
6901,Kemberg,51.7812980581,12.6226084549,1,4
92726,Waidhaus,49.6512455095,12.4925256797,0,5
94330,Aiterhofen,48.8417767965,12.628185829,5,0
83365,Nußdorf,47.9107070351,12.5944611783,2,3
94350,Falkenfels,49.0035243834,12.5910958226,0,5
93494,Waffenbrunn,49.2849920952,12.6671234741,0,5
17248,Rechlin,53.3295680555,12.7621712274,0,5
94353,Haibach,49.0268201557,12.7317624326,2,3
8294,Lößnitz,50.6252662033,12.7484235573,0,5
93466,Chamerau,49.1964424283,12.7694991144,0,5
84329,Wurmannsquick,48.3557511892,12.8119232804,0,5
94424,Arnstorf,48.555481729,12.8216357222,3,2
14542,Werder/ Havel,52.383452302,12.8847932188,4,1
16766,Kremmen,52.7864475078,13.0299964372,5,0
94439,Roßbach,48.5818348803,12.9283392767,0,5
14476,Potsdam,52.4065532193,12.9620960574,5,0
9427,Ehrenfriedersdorf,50.6455262794,12.9600206473,0,5
4720,"Döbeln, Großweitzschen u.a.",51.1417757721,13.1261239927,0,5
4895,Falkenberg/ Elster,51.5613761148,13.2320096953,0,5
9575,Eppendorf,50.7962134484,13.2544309459,0,5
13503,Berlin Tegel,52.6121735765,13.2487899105,1,4
94529,Aicha vorm Wald,48.6815973282,13.3097630728,0,5
10559,Berlin Moabit,52.5300972688,13.3499004739,4,1
9627,Bobritzsch,50.8908958648,13.4462159028,0,5
10179,Berlin Mitte,52.5121101309,13.4164080225,12,0
87616,Marktoberdorf,47.7494330799,10.6087080265,16,0
91456,Diespeck,49.5984767856,10.6256183689,0,5
87600,Kaufbeuren,47.8803493572,10.6165048009,13,0
38879,Wernigerode,51.7866033968,10.6276850049,2,3
87629,Füssen,47.5832158281,10.6636815271,16,0
86750,Megesheim,48.9377939257,10.6642772727,0,5
91732,Merkendorf,49.2030835628,10.6898531852,1,4
38855,"Wernigerode, Nordharz",51.8465495507,10.799561367,14,0
91466,Gerhardshofen,49.6162662765,10.7102307028,0,5
91735,Muhr a. See,49.1605967773,10.71907578,2,3
86420,Diedorf,48.3519297411,10.7632644586,1,4
38444,Wolfsburg,52.3752247592,10.7635175424,7,0
86653,Monheim,48.8331563391,10.8715344488,0,5
86675,Buchdorf,48.7834456224,10.8417686308,0,5
91074,Herzogenaurach,49.5706232199,10.8787208544,15,0
19246,Zarrentin,53.552000388,10.9318395839,8,0
99192,"Nesse-Apfelstädt, Nottleben",50.9309068168,10.8914936342,1,4
99707,Kyffhäuserland,51.3662644022,11.0094190356,1,4
39646,Oebisfelde,52.4499239112,11.0214508951,3,2
91058,Erlangen,49.5582923425,11.0071101595,8,0
15749,Mittenwalde,52.2489814448,13.5500078148,2,3
12487,Berlin,52.4424705272,13.5047189686,5,0
15757,Halbe,52.0824931411,13.7045054406,0,5
1127,Dresden,51.0913044741,13.7448371608,0,5
94139,Breitenberg,48.6954645504,13.7774948728,0,5
3205,"Calau, Bronkow",51.7305216155,13.9073748863,0,5
15377,"Oberbarnim, Märkische Höhe u.a.",52.5903119224,14.0690871963,1,4
1909,"Großharthau, Frankenthal",51.1080179566,14.0794586905,0,5
2736,"Beiersdorf, Oppach",51.0664692642,14.513702211,0,5
68649,Groß-Rohrheim,49.714630222,8.4779191048,1,4
32289,Rödinghausen,52.2358374973,8.4973079896,1,4
61476,Kronberg im Taunus,50.188734577,8.51605013482,4,1
64572,Büttelborn,49.9112716678,8.53448336597,4,1
68219,Mannheim,49.4313420776,8.531315766,2,3
65824,Schwalbach am Taunus,50.1511379481,8.53261363008,4,1
35444,Biebertal,50.6457516628,8.57599468609,0,5
75217,Birkenfeld,48.8706398904,8.60824760357,3,2
75394,Oberreichenbach,48.7392963453,8.63249399195,3,2
76698,Ubstadt-Weiher,49.1775003074,8.64310220219,6,0
59964,Medebach,51.2078282258,8.67537959102,8,0
60327,Frankfurt am Main,50.100009914,8.64541093978,9,0
28759,Bremen,53.1673356421,8.65365996265,0,5
75177,Pforzheim,48.9120221293,8.70779130673,3,2
27472,Cuxhaven,53.8531829271,8.71023166596,10,0
25899,Niebüll,54.767662708,8.79364429276,10,0
69117,Heidelberg,49.3926279672,8.72523256796,10,0
69118,Heidelberg,49.420251577,8.7579449044,1,4
71131,Jettingen,48.576119075,8.78114689821,1,4
25869,"Habel, Gröde",54.6348869044,8.72427966803,0,5
72181,Starzach,48.4306883085,8.81572950919,1,4
72336,Balingen,48.2659139998,8.86240674302,10,0
75417,Mühlacker,48.9435888334,8.8574331314,7,0
64385,Reichelsheim (Odenwald),49.7019520479,8.85682667722,1,4
25761,Büsum,54.1594132662,8.8668342883,13,0
72414,Rangendingen,48.3869435218,8.87607201706,3,2
71154,Nufringen,48.6214013424,8.89688241504,2,3
28327,Bremen,53.0722899331,8.91825743593,2,3
71139,Ehningen,48.6561762128,8.94595091375,3,2
78315,Radolfzell am Bodensee,47.7644094774,8.98319387407,13,0
71735,Eberdingen,48.8835017595,8.96183685714,3,2
64739,Höchst i. Odw.,49.7872729463,8.97675040812,2,3
63538,Großkrotzenburg,50.0853854161,8.97620761032,4,1
74336,Brackenheim,49.0836638888,9.06522296568,3,2
25776,"Sankt Annen, Rehm-Flehde-Bargen",54.3450982691,9.0918096765,1,4
71706,Markgröningen,48.9103718944,9.06873808268,3,2
74357,Bönnigheim,49.0337262363,9.0876535276,0,5
70825,Korntal-Münchingen,48.8480549492,9.10229508272,7,0
24994,Medelby,54.8243568545,9.17065906697,0,5
78467,Konstanz,47.6870086703,9.1478984726,8,0
63864,Glattbach,50.0095844115,9.14423191094,0,5
63906,Erlenbach a.Main,49.8069318422,9.17662523778,0,5
21726,Oldendorf,53.5749631361,9.26521169888,0,5
27449,Kutenholz,53.4898832935,9.31515403645,0,5
73730,Esslingen am Neckar,48.7348682159,9.35968422907,5,0
36399,Freiensteinau,50.4384963184,9.39901683248,6,0
63879,"Weibersbrunn, Rohrbrunner Forst",49.9133594933,9.39934667568,3,2
63860,"Rothenbuch, Rothenbucher Forst",49.9640370849,9.39815662926,1,4
88499,Riedlingen,48.166742511,9.4578375276,2,3
71576,Burgstetten,48.9265091913,9.38455296428,1,4
37649,Heinsen,51.8720987063,9.42153908826,0,5
36396,Steinau an der Straße,50.3212369345,9.47399789923,6,0
88518,Herbertingen,48.0643918997,9.43537082167,0,5
24872,Groß Rheide,54.4411997631,9.42615288264,0,5
34385,Bad Karlshafen,51.6291016043,9.44659353918,3,2
97840,"Hafenlohr, Rothenbuch",49.9016712234,9.5414850722,0,5
52538,"Gangelt, Selfkant",51.0111805789,5.97171616435,2,3
47623,Kevelaer-Mitte,51.579101509,6.23234247174,2,3
47625,Kevelaer-Wetten,51.5616412073,6.29194002831,0,5
53940,Hellenthal,50.4488050405,6.42564938407,2,3
52445,Titz,50.995285261,6.4220053041,1,4
52385,Nideggen,50.676148657,6.48555017842,2,3
54453,Nittel,49.6465391512,6.46279496151,0,5
47445,Moers,51.4908201599,6.6085312813,4,1
40670,Meerbusch,51.2751378364,6.62867132093,9,0
54526,Landscheid,49.9988844077,6.75038485926,0,5
47059,Duisburg,51.4392030874,6.74053276034,1,4
47119,Duisburg,51.4582757698,6.73521729406,3,2
66787,Wadgassen,49.2474380092,6.77702861453,4,1
40225,Düsseldorf,51.1969796492,6.79421381602,2,3
66773,Schwalbach,49.3064650706,6.8327970322,2,3
41541,Dormagen,51.1324833568,6.82998369644,2,3
54516,Wittlich,49.9932200973,6.91295442917,13,0
26571,"Juist, Memmert",53.6764996986,6.97506063354,0,5
66292,Riegelsberg,49.3092453334,6.94180077886,2,3
56767,Uersfeld,50.2548181922,7.00110313902,2,3
45133,Essen,51.4036062927,6.98414370702,12,0
45144,Essen,51.4519837189,6.96755532639,2,3
50678,Köln,50.9231929404,6.96357683032,1,4
66625,Nohfelden,49.5741878664,7.08539379919,2,3
49767,Twist,52.6652518423,7.09664030435,4,1
56759,Kaisersesch,50.2382785087,7.09908286202,4,1
26842,Ostrhauderfehn,53.14649739,7.61323254841,3,2
66978,Clausen,49.2651382637,7.7503814918,0,5
67757,Kreimbach-Kaulbach,49.5522969791,7.63231511351,0,5
67827,Becherbach,49.6578529596,7.67919352385,0,5
26474,Spiekeroog,53.7703198934,7.73012520803,0,5
67715,Geiselberg,49.3278468072,7.69000556366,1,4
57587,Birken-Honigsessen,50.8273329352,7.74426543453,0,5
76848,Wilgartswiesen,49.2978586234,7.85008165039,1,4
58706,Menden,51.4317093859,7.79321657763,5,0
57629,"Malberg, Norken, Höchstenbach u.a.",50.6323692882,7.7600650083,0,5
77971,Kippenheim,48.2949575424,7.8472243483,0,5
67811,Dielkirchen,49.6654462867,7.82757211982,0,5
55124,Mainz,50.0010369659,8.20238933822,2,3
59556,Lippstadt,51.6678100388,8.27724669935,1,4
35792,Löhnberg,50.5378720206,8.25594911452,0,5
76596,Forbach,48.6493254069,8.33038199263,2,3
35796,Weinbach,50.4365821361,8.29175463575,0,5
35716,Dietzhölztal,50.8484578865,8.29676673239,0,5
55130,Mainz,49.962509229,8.31238804466,1,4
65462,Ginsheim-Gustavsburg,49.9754711161,8.33488267154,5,0
67549,Worms,49.6376535404,8.3268909556,2,3
35630,Ehringshausen,50.6205827807,8.3767630118,2,3
49328,Melle,52.2209751544,8.41973306634,4,1
67575,Eich,49.749857809,8.40288189993,0,5
33649,Bielefeld,51.9786245224,8.4540882518,2,3
72297,Seewald,48.585984225,8.45572584138,2,3
78739,Hardt,48.180187951,8.4150268144,0,5
26441,Jever,53.5571278792,7.88050066355,12,0
56355,Nastätten u.a.,50.2326106685,7.87222245243,1,4
76855,Annweiler am Trifels,49.2103645555,7.97053246354,4,1
26419,Schortens,53.5455654992,7.96401519661,13,0
79115,Freiburg im Breisgau,47.9881226172,7.82158735582,6,0
77866,Rheinau,48.6567403634,7.93538586146,2,3
57578,Elkenroth,50.7281151135,7.88473643171,0,5
67295,Bolanden,49.6394614257,7.99106797009,0,5
67294,Bischheim u.a.,49.685756542,8.04627622371,1,4
77871,Renchen,48.5869607476,8.02380975851,0,5
67816,"Dreisen, Standenbühl",49.59814138,7.99981611334,0,5
67482,Venningen,49.2810186472,8.07363221207,2,3
67468,"Frankenstein, Neidenfels, Frankeneck",49.4406134057,7.95287400711,0,5
49456,Bakum,52.7340792615,8.14529737776,2,3
65620,Waldbrunn,50.5115443191,8.11306107812,0,5
88045,Friedrichshafen,47.665964395,9.45962183475,11,0
97848,Rechtenbach,49.9856284238,9.51984239734,0,5
25575,Beringstedt,54.1177802272,9.53413144189,0,5
97839,Esselbach,49.8699436425,9.54900019531,1,4
34266,Niestetal,51.3155718373,9.58657382117,2,3
88371,Ebersbach-Musbach,47.9704297852,9.58198661351,1,4
74238,Krautheim,49.387922366,9.63580733073,1,4
97788,Neuendorf,50.0353806298,9.62034759655,0,5
30419,Hannover,52.4123426238,9.66656603548,27,0
88255,Baienfurt,47.8438253126,9.66511870258,4,1
24782,"Büdelsdorf, Rickert",54.3260405298,9.67487624063,4,1
51147,Köln,50.8688635571,7.1075194408,6,0
45307,Essen,51.4641088843,7.0860544212,5,0
56861,Reil,50.0256376245,7.09839511996,0,5
66578,Schiffweiler,49.3672018362,7.11654121271,1,4
42115,Wuppertal,51.2565768979,7.10982285613,3,2
56850,Enkirch u.a.,49.9687817705,7.19796366087,2,3
49808,Lingen,52.538907899,7.28209809315,8,0
44807,Bochum,51.5090745462,7.22809525075,2,3
44799,Bochum,51.4443842557,7.25636488638,2,3
48493,Wettringen,52.2311550503,7.29521339587,3,2
66916,Breitenbach,49.4272520721,7.28496195329,0,5
53545,"Linz am Rhein, Ockenfels",50.5784417438,7.30282974278,2,3
58300,Wetter (Ruhr),51.3777453717,7.35368272786,9,0
26553,Dornum,53.6557021226,7.41510800062,3,2
53562,Sankt Katharinen (Landkreis Neuwied),50.5916092683,7.35705981279,0,5
53783,Eitorf,50.7646954142,7.45219290316,6,0
55608,Bergen,49.7329129268,7.50081626798,0,5
56283,"Wildenbungert, Gondershausen, Nörtershausen u.a.",50.2294701328,7.4878495116,0,5
67744,"Medard, Rathskirchen u.a.",49.6087218291,7.71809045949,0,5
48432,Rheine,52.2603217281,7.48023266993,3,2
79424,Auggen,47.7887816123,7.58910796512,1,4
82549,Königsdorf,47.8125478601,11.4665617543,2,3
96346,Wallenfels,50.2778188286,11.4996342947,0,5
80995,München,48.2171699056,11.5152098319,4,1
19306,Neustadt-Glewe,53.3964032265,11.5992897094,6,0
7751,"Jena, Bucha, Großpürschütz u.a.",50.8183469063,11.6036829465,0,5
80935,München,48.1986539541,11.5536158476,2,3
7749,Jena,50.9230308581,11.6125736298,0,5
81671,München,48.1219521757,11.6181389491,7,0
83624,Otterfing,47.9143688393,11.6741415033,1,4
81829,München,48.1337438445,11.6883505395,12,0
95180,Berg,50.3803374547,11.7801720495,3,2
92224,Amberg,49.4507786802,11.8454691582,12,0
93346,Ihrlerstein,48.9532557156,11.8503131594,0,5
95505,Immenreuth,49.9520694752,11.8068437739,2,3
6242,Braunsbedra,51.2876006702,11.8887204866,0,5
39264,"Güterglück, Lindau, Deetz u.a.",51.9957868358,12.1138320653,0,5
95126,Schwarzenbach a.d. Saale,50.2103332449,11.9260490841,1,4
95709,Tröstau,50.0277237638,11.9124941321,0,5
93183,Kallmünz,49.1566405105,11.9568277978,1,4
93182,Duggendorf,49.1234453192,11.9245893797,0,5
82490,Farchant,47.5346461428,11.1076167093,3,2
90469,Nürnberg,49.4043467675,11.094681186,2,3
90491,Nürnberg,49.4724946454,11.1319037258,4,1
82211,Herrsching a. Ammersee,48.0027618259,11.1521594189,2,3
99198,"Udestedt, Mönchenholzhausen u.a.",51.0419067834,11.1467053374,2,3
23946,Boltenhagen,53.9444393968,11.2003801994,10,0
82296,Schöngeising,48.1342654843,11.2050794336,2,3
7318,Saalfeld/Saale,50.6130424899,11.3013432749,1,4
19294,Neu Kaliß,53.2161709398,11.3854464861,0,5
99444,Blankenhain,50.8489611598,11.3635100041,4,1
90559,Burgthann,49.3387308105,11.3289693772,1,4
99636,Rastenberg,51.1939918674,11.3758105483,1,4
91278,Pottenstein,49.7684156194,11.4187394136,3,2
25365,Klein Offenseth-Sparrieshoop,53.8021040309,9.68262714385,3,2
89619,Unterstadion,48.2060462571,9.7024537711,0,5
36100,Petersberg,50.5824337383,9.73842302986,2,3
88441,Mittelbiberach,48.0775347205,9.7416889278,1,4
30853,Langenhagen,52.4488845247,9.74734825979,16,0
97295,"Waldbrunn, Irtenberger Wald",49.7602430196,9.7870802452,0,5
73525,Stadt Schwäbisch Gmünd,48.7955844251,9.7993083735,5,0
97999,Igersheim,49.5274666676,9.84679956577,1,4
97271,Kleinrinderfeld,49.7026327687,9.84479568879,0,5
97276,Margetshöchheim,49.8362905832,9.85097209496,0,5
89173,Lonsee,48.5436590021,9.90948187615,1,4
88487,Mietingen,48.179546878,9.89573805519,0,5
31084,Freden (Leine),51.9609221226,9.95285747807,0,5
37249,Neu-Eichenberg,51.3858477386,9.89422069782,1,4
24242,Felde,54.3052491074,9.92764424143,0,5
22457,Hamburg,53.6274155528,9.93142137017,5,0
21271,"Hanstedt, Asendorf",53.2563920383,9.98596660387,0,5
24407,Rabenkirchen-Faulück,54.6528777686,9.86374941636,0,5
31191,Algermissen,52.263171838,9.97101570369,2,3
22848,Norderstedt,53.6692036397,9.96505391833,6,0
20255,Hamburg,53.5789450903,9.95238392308,5,0
20357,Hamburg,53.5635012931,9.96801962625,16,0
97688,Bad Kissingen,50.2026371681,10.0589751444,8,0
24629,Kisdorf,53.8138749137,10.0479071153,1,4
20149,Hamburg,53.5782132383,9.99254229339,13,0
29223,Celle,52.6339106261,10.0965011831,4,1
31249,Hohenhameln,52.2690544627,10.0774762076,2,3
97239,Aub,49.5473177779,10.0433392509,0,5
21037,Hamburg,53.4466508558,10.1467469876,3,2
24637,Schillsdorf,54.1138374758,10.129848302,0,5
36457,"Stadtlengsfeld, Weilar, Urnshausen",50.7620289774,10.1450172152,1,4
37539,Bad Grund,51.7884887076,10.2000537444,4,1
24601,Wankendorf,54.1232280933,10.2209019326,0,5
38729,"Hahausen, Lutter, Wallmoden",51.9826553192,10.252335718,2,3
87527,Sonthofen,47.5025473302,10.2913153306,10,0
21029,Hamburg,53.4829810098,10.2268176935,11,0
89564,Nattheim,48.7135741365,10.2718494165,1,4
21465,Reinbek,53.5305680191,10.2638158915,22,0
91626,Schopfloch,49.1122061657,10.3026129107,0,5
87724,Ottobeuren,47.9322340025,10.3256352427,2,3
22955,Hoisdorf,53.6532409168,10.3236170559,0,5
97531,Theres,50.028654026,10.4246265751,0,5
73497,Tannhausen,48.9768729715,10.357630265,1,4
97513,"Michelau i. Steigerwald, Hundelshausen",49.9150353499,10.4542696262,1,4
38112,Braunschweig,52.3092529625,10.4756950068,5,0
91619,Obernzenn,49.4500213441,10.4887292645,2,3
86720,Nördlingen,48.8574521754,10.5111614425,7,0
98547,Viernau u.a.,50.6369880286,10.5110502954,0,5
21527,Kollow,53.4686668967,10.4622639191,0,5
29559,Wrestedt,52.887363282,10.6111985367,0,5
97461,Hofheim i. UFr.,50.1382042824,10.5360853695,0,5
38110,Braunschweig,52.3333001452,10.5485070811,0,5
38559,"Wagenhoff, Ringelah",52.5547310985,10.5182677955,0,5
29585,Jelmstorf,53.1038673222,10.5316221788,0,5
86424,Dinkelscherben,48.3404250519,10.582381699,0,5
83735,Bayrischzell,47.6575574785,11.9869805055,4,1
93356,Teugn,48.8898562167,12.0120930093,0,5
6112,Halle/ Saale,51.4694984769,11.9990078732,1,4
39524,Sandau,52.6481924914,12.0863914656,0,5
93053,Regensburg,48.9907550209,12.1022427294,15,0
93083,Obertraubling,48.9544832359,12.1521446696,8,0
95659,Arzberg,50.045928947,12.1810276702,1,4
18299,"Laage, Wardow u.a.",53.9184799501,12.3369797663,0,5
95706,Schirnding,50.0718805862,12.2370429165,1,4
4158,Leipzig,51.4022957426,12.3333270886,1,4
4105,Leipzig,51.3506012167,12.3601540447,0,5
4564,Böhlen,51.2067487871,12.3831928752,0,5
83254,Breitbrunn a. Chiemsee,47.8936432654,12.3844439926,1,4
14778,"Beetzsee, Wollin, Wenzlow, Golzow u.a.",52.4905882356,12.6418279025,2,3
4315,Leipzig,51.3445565996,12.4079946628,0,5
92559,Winklarn,49.4362873363,12.5045765434,0,5
84326,Falkenberg,48.4701495326,12.7097225074,3,2
8324,Bockau,50.5286817683,12.6828146969,0,5
8349,Johanngeorgenstadt,50.4344175344,12.6947459428,0,5
9394,Hohndorf,50.7427773826,12.6734904783,0,5
84524,Neuötting,48.2423648939,12.7456588521,3,2
84571,Reischach,48.294645566,12.7142588943,1,4
84335,Mitterskirchen,48.3473189197,12.7291120481,0,5
94379,Sankt Englmar,49.0041747458,12.8207726523,1,4
9236,Claußnitz,50.9388731058,12.8799163142,0,5
14478,Potsdam,52.3659111064,13.0929527306,3,2
14532,Kleinmachnow,52.3701087131,13.202926668,13,0
14129,Berlin Nikolassee,52.4462783242,13.2026038136,3,2
94579,Zenting,48.7878990021,13.2558744796,1,4
94261,Kirchdorf i. Wald,48.9127017996,13.2595569658,0,5
16540,Hohen Neuendorf,52.6609712898,13.2633948271,5,0
15936,Dahme u.a.,51.8813679532,13.4273141453,0,5
15837,Baruth,52.0350129112,13.4841859536,2,3
13353,Berlin Wedding,52.5415972552,13.3494878209,9,0
10787,Berlin Tiergarten,52.5078600673,13.3438868698,13,0
10557,Berlin Moabit,52.5233687469,13.3595445698,11,0
3253,Doberlug-Kirchhain,51.629891314,13.4933625242,0,5
17349,Groß Miltzow,53.5288770127,13.5308204768,0,5
12101,Berlin Tempelhof,52.4785891478,13.3794334469,4,1
94568,Sankt Oswald,48.9308810487,13.4184846795,1,4
10437,Berlin Prenzlauer Berg,52.5448482876,13.4125685186,10,0
10405,Berlin Prenzlauer Berg,52.5351591871,13.4255513074,10,0
12305,Berlin,52.4031921127,13.4016078006,1,4
17099,"Friedland, Galenbeck, Datzetal",53.647683299,13.6742745056,1,4
33129,Delbrück,51.7654502577,8.54089522149,9,0
65830,Kriftel,50.0799083524,8.46666038872,4,1
35580,Wetzlar,50.5251807739,8.48859760204,0,5
27499,Neuwerk,53.9539885932,8.43814729226,0,5
78073,Bad Dürrheim,47.9968080278,8.58672791104,6,0
27568,"Bremerhaven, Bremen",53.568735907,8.55980518023,13,0
32609,Hüllhorst,52.2689580547,8.66635625065,2,3
28755,Bremen,53.1959763375,8.61440631428,3,2
27211,Bassum,52.8545908143,8.73674418095,3,2
69254,Malsch,49.2438798323,8.67212104268,1,4
75365,Calw,48.7097400302,8.73580896428,20,0
64380,Roßdorf,49.868729031,8.7620394067,5,0
72108,Rottenburg am Neckar,48.5125082211,9.0060856801,4,1
72367,Weilen unter den Rinnen,48.1883634346,8.77425036476,0,5
72358,Dormettingen,48.243389097,8.77423738494,0,5
75397,Simmozheim,48.7527822822,8.76851639473,2,3
63110,Rodgau,50.0129037399,8.88194851234,23,0
28211,Bremen,53.0822274346,8.85473448101,1,4
78267,Aach,47.84367286,8.85819484842,1,4
78253,Eigeltingen,47.8862010561,8.91029947783,0,5
35305,Grünberg,50.6069209542,8.954028975,8,0
72415,Grosselfingen,48.3402874824,8.8792780513,0,5
78580,Bärenthal,48.0867002711,8.92386461956,2,3
27442,Gnarrenburg,53.3793096158,9.02315264221,1,4
28832,Achim,53.0205925749,9.03997912214,10,0
35260,Stadtallendorf,50.8326045153,9.01844303484,4,1
32839,Steinheim,51.8485835347,9.05491103523,2,3
33039,Nieheim,51.8066218732,9.10318832442,2,3
70499,Stuttgart,48.8096566016,9.10582985038,17,0
74354,Besigheim,49.0217479085,9.20810107732,2,3
70435,Stuttgart,48.8309418347,9.16199130665,9,0
63924,"Kleinheubach, Rüdenau",49.7189196278,9.18382597012,2,3
25791,"Linden, Barkenholm",54.2458518614,9.19204144503,0,5
21709,Himmelpforten,53.6131988481,9.29784252296,1,4
72511,Bingen,48.1199953619,9.27352854235,1,4
71672,Marbach am Neckar,48.9676568744,9.33840443531,5,0
36318,Schwalmtal,50.6868271477,9.30369650746,1,4
36358,Herbstein,50.5538169644,9.38005977854,1,4
25725,"Schafstedt, Weidenhof, Bornholt",54.0855573925,9.29690917245,0,5
88515,Langenenslingen,48.1666739227,9.35034032114,1,4
71720,Oberstenfeld,49.0328278684,9.3579149634,2,3
72813,St. Johann,48.4531824762,9.3524831611,2,3
71563,Affalterbach,48.9191253024,9.33803037832,1,4
63871,Heinrichsthal,50.0652666488,9.33761879257,0,5
24941,Flensburg,54.7689664603,9.40636362903,8,0
31789,Hameln,52.051655733,9.43412256148,4,1
34130,Kassel,51.3248927073,9.43736304859,0,5
37194,"Bodenfelde, Wahlsburg",51.664428494,9.52365599974,2,3
12351,Berlin Buckow,52.4327686548,13.4555048892,7,0
10247,Berlin Friedrichshain,52.516070656,13.4654978106,5,0
1774,Klingenberg,50.8948830062,13.5482039923,0,5
12527,Berlin Schmöckwitz,52.3856280771,13.6338198773,2,3
15732,Schulzendorf b. Eichenwade,52.3604859195,13.5972748291,1,4
1738,Dorfhain,50.9352851778,13.5529622076,0,5
17398,Ducherow,53.7766240526,13.7798543883,0,5
1219,Dresden,51.0231768153,13.765912591,0,5
1277,Dresden,51.0361285231,13.7971935401,0,5
1968,Senftenberg,51.5213337568,14.0228649039,0,5
15517,Fürstenwalde/ Spree,52.374323805,14.0575135407,7,0
15374,Müncheberg,52.5145895321,14.1286100557,0,5
2977,Hoyerswerda,51.4256250145,14.2201581601,2,3
2733,Cunewalde,51.0997540892,14.5248679523,0,5
15230,Frankfurt/ Oder,52.3365751101,14.5517999844,1,4
2957,"Krauschwitz, Weißkeißel",51.497628981,14.6835247727,0,5
2956,Rietschen,51.409935905,14.8025561533,0,5
2797,Oybin,50.8404429344,14.7520401891,0,5
86874,Tussenhausen,48.1062760569,10.5558754846,0,5
87637,Seeg,47.6451846609,10.6120822859,1,4
99735,Werther Hohenstein Wolkramshausen,51.4660389541,10.6977565473,1,4
96126,Maroldsweisach,50.1928732991,10.6796934826,0,5
86842,Türkheim,48.0615586517,10.6358162799,5,0
96185,Schönbrunn i. Steigerwald,49.8632855437,10.6730170871,2,3
86514,Ustersbach,48.3224307612,10.6399156705,0,5
21368,Dahlenburg,53.1875265493,10.7217178309,4,1
38557,Osloß,52.4745138257,10.6761366048,0,5
86830,Schwabmünchen,48.1955991378,10.7281800807,4,1
91805,Polsingen,48.9332333422,10.7296199549,0,5
96476,Rodach b. Coburg,50.3337668932,10.7963759257,3,2
91469,Hagenbüchach,49.5285725926,10.7628868631,1,4
96169,Lauter,49.9771985453,10.7780164367,0,5
86356,Neusäß,48.3926631927,10.8081928743,5,0
86707,"Westendorf, Kühlenthal",48.5689094475,10.8195940902,0,5
91801,Markt Berolzheim,49.0069138476,10.836558946,0,5
38465,Brome,52.6002918359,10.9090720894,0,5
29490,Neu Darchau,53.2108354202,10.9052236629,1,4
38376,Süpplingenburg,52.2607786859,10.9099360945,0,5
86444,Affing,48.4493159149,10.9640347002,0,5
96175,Pettstadt,49.8309349026,10.9284735436,1,4
86161,Augsburg,48.3463746051,10.92092906,3,2
29481,Karwitz,53.0864207455,10.9904998726,0,5
38459,Bahrdorf,52.3701128084,11.0067658002,0,5
91186,Büchenbach,49.2682612083,11.024942821,0,5
73663,Berglen,48.8542607604,9.46901973579,1,4
34593,Knüllwald,50.9956028254,9.5125678688,5,0
97816,Lohr a. Main,50.0262912588,9.5637001904,12,0
25371,Seestermühe,53.69688514,9.55731386364,2,3
88284,Wolpertswende,47.8946444284,9.62228624488,3,2
25368,Kiebitzreihe,53.779884633,9.59280012333,0,5
88212,Ravensburg,47.7807166535,9.62415060818,6,0
97785,Mittelsinn,50.1916427034,9.63608675251,0,5
30952,Ronnenberg,52.3091889706,9.6558403474,5,0
37235,Hessisch Lichtenau,51.1952052262,9.74594178626,3,2
58513,Lüdenscheid,51.234177316,7.66307630467,4,1
79426,Buggingen,47.8541271686,7.63196066493,1,4
77977,Rust,48.2704291911,7.71723859092,5,0
58708,Menden,51.4413830092,7.80210644649,4,1
77966,Kappel-Grafenhausen,48.2962211557,7.74929255217,2,3
48351,Everswinkel,51.9186789213,7.84240795955,2,3
56379,Singhofen,50.2830412276,7.77487701958,0,5
57462,Olpe,51.0396429836,7.8864766398,10,0
79669,Zell im Wiesental,47.7177971254,7.8573024665,1,4
79348,Freiamt,48.1752548619,7.92024580931,3,2
49594,Alfhausen,52.4955974208,7.95317771146,0,5
67725,Börrstadt,49.5814004651,7.93795145496,1,4
26160,Bad Zwischenahn,53.1822207023,8.02837416785,10,0
59510,Lippetal,51.6747568338,8.08884316303,7,0
57290,Neunkirchen,50.7866558192,8.01618910975,2,3
55288,Armsheim,49.8818338005,8.08755905128,5,0
57250,Netphen,50.908655701,8.16067273602,6,0
56477,"Rennerod, Zehnhausen, Nister-Möhrendorf, Waigandshain",50.6270233476,8.07423646846,3,2
67273,Weisenheim am Berg,49.4687613195,8.0440046825,4,1
78120,Furtwangen im Schwarzwald,48.0484144231,8.20919146146,3,2
67251,Freinsheim,49.5091539531,8.21284100976,4,1
26133,Oldenburg (Oldenburg),53.1039695394,8.22131462647,5,0
76467,Bietigheim,48.9038796412,8.26257567189,1,4
67136,Fußgönheim,49.4620502777,8.29301344181,0,5
49152,Bad Essen,52.321409609,8.38213698791,8,0
33397,Rietberg,51.8021331766,8.42298707493,6,0
55278,Mommenheim,49.8367810444,8.26274448318,0,5
76149,Karlsruhe,49.049877708,8.38236897122,5,0
79879,Wutach,47.8276321217,8.42580587638,0,5
55469,Simmern/Hunsrück u.a.,49.9977073443,7.5315792207,5,0
56579,Rengsdorf,50.5155738981,7.50052594237,0,5
26629,Großefehn,53.3951007743,7.60487771738,3,2
48163,Münster,51.8948760365,7.57624273135,9,0
44309,Dortmund,51.5270638632,7.55606818137,5,0
59387,Ascheberg,51.7730411127,7.63972656291,6,0
67753,Rothselberg u.a.,49.5448181061,7.59332943087,1,4
54673,Neuerburg u.a.,50.0160842722,6.25995522339,4,1
52222,Stolberg (Rhld.),50.7732075076,6.2188032935,8,0
54669,Bollendorf,49.8541299064,6.36278240325,2,3
54450,Freudenburg,49.5468793061,6.5417138268,0,5
53909,Zülpich,50.6865060419,6.66803622211,5,0
53945,Blankenheim,50.4082856808,6.68832188939,4,1
66701,Beckingen,49.4219891439,6.74154934693,0,5
47229,Duisburg,51.3877956582,6.70658966139,0,5
49847,Itterbeck/Wielen,52.5127951,6.75495320737,1,4
41469,Neuss,51.1533700932,6.71857747686,0,5
46537,Dinslaken,51.5783118577,6.73926067888,7,0
41540,Dormagen,51.0757088363,6.79894962288,5,0
66806,Ensdorf,49.3023561806,6.78149202392,0,5
40880,Ratingen,51.298077626,6.81960863347,4,1
46149,Oberhausen,51.5115807752,6.83521689442,2,3
40789,Monheim am Rhein,51.095929473,6.89269538952,9,0
50937,Köln,50.9121855241,6.91145140382,1,4
50997,Köln,50.8651006899,6.95062251833,3,2
40724,Hilden,51.1812752882,6.95465470824,6,0
50668,Köln,50.9499808484,6.96284467591,6,0
45141,Essen,51.4739085921,7.0236153299,11,0
45327,Essen,51.4973069806,7.04606747547,1,4
66649,Oberthal,49.5243875594,7.09459965425,0,5
26871,Papenburg,53.0563970713,7.40186463955,13,0
56290,Beltheim,50.1205133819,7.40731124079,2,3
56567,Neuwied,50.4718180473,7.44725124229,3,2
66497,Contwig,49.2428328655,7.43959689307,1,4
48341,Altenberge,52.0385805385,7.47797335804,6,0
66501,Kleinbundenbach,49.3039131284,7.43409396027,0,5
45277,Essen,51.4258596796,7.07735477633,2,3
53127,Bonn,50.7020652411,7.08538245594,3,2
45770,Marl,51.6591776921,7.14475161778,2,3
45888,Gelsenkirchen,51.5163571165,7.11922599007,1,4
53757,Sankt Augustin,50.7713994554,7.18978816107,12,0
45659,Recklinghausen,51.6168041729,7.18548176498,2,3
44795,Bochum,51.4514197434,7.1971465118,4,1
56814,Ediger-Eller,50.1032155005,7.14052051903,2,3
56867,Briedel,50.0068624255,7.16247852923,0,5
47574,Goch,51.6954346369,6.12369054365,26,0
52499,Baesweiler,50.9179633642,6.18527617476,9,0
54608,Bleialf,50.2370856422,6.30452023499,1,4
47669,Wachtendonk,51.3994770115,6.32629849258,1,4
41747,Viersen,51.2530903346,6.38385140636,6,0
54310,Ralingen,49.8141869183,6.51728602285,1,4
53925,Kall,50.516428529,6.55267370183,5,0
54578,"Walsdorf, Nohn u.a.",50.3297027087,6.79282268184,2,3
47179,Duisburg,51.5256100818,6.73693787594,0,5
41470,Neuss,51.1351486988,6.7366153327,1,4
53881,Euskirchen,50.6348255232,6.81830113033,8,0
66333,Völklingen,49.2203961946,6.80256854397,25,0
47166,Duisburg,51.4922674522,6.75447604234,5,0
40547,Düsseldorf,51.2445592059,6.74124791637,4,1
49843,"Uelsen, Halle, Gölenkamp, Getelo",52.4877728551,6.88437919366,3,2
40237,Düsseldorf,51.2370489921,6.81063762557,2,3
40593,Düsseldorf,51.1426265494,6.871972707,4,1
53332,Bornheim,50.7682278545,6.95507401611,7,0
45356,Essen,51.4913521693,6.97131018072,5,0
56729,Ettringen,50.3286948986,7.09768127486,3,2
51379,Leverkusen,51.0702850308,7.00103346393,2,3
42799,Leichlingen,51.111956194,7.05851261086,0,5
66287,Quierschied,49.3220458026,7.02877233503,1,4
45130,Essen,51.4377243459,7.00977408303,14,0
45128,Essen,51.4459272376,7.01260672342,16,0
51069,Köln,50.9910630685,7.05850692211,2,3
44866,Bochum,51.4858312644,7.14100141565,1,4
66640,Namborn,49.5181729329,7.1646427425,0,5
51429,Bergisch Gladbach,50.9713637107,7.19336499328,3,2
56653,Wehr,50.422409334,7.2420602897,0,5
44625,Herne,51.5277412676,7.21408728647,6,0
44789,Bochum,51.4690022614,7.22110862261,4,1
26892,"Dörpen, Lehe, u.a.",52.9667037434,7.34106602199,9,0
44579,Castrop-Rauxel,51.5758909596,7.28904193216,3,2
88281,Schlier,47.7941948515,9.69597036366,0,5
73107,Eschenbach,48.6532073758,9.67634963783,0,5
24864,"Brodersby, Goltoft",54.5377445964,9.70555017084,0,5
24888,Steinfeld,54.6042060435,9.72649374149,0,5
24802,Emkendorf,54.2435892044,9.81741278696,0,5
29308,Winsen (Aller),52.7003491778,9.87908511048,2,3
73312,Geislingen an der Steige,48.6112796565,9.83632831511,4,1
97789,Oberleichtersbach,50.2764282646,9.80316619757,0,5
36160,Dipperz,50.5339100251,9.8137083957,2,3
97795,Schondra,50.2483615758,9.85392407864,2,3
25485,Hemdingen,53.7737551621,9.84928258662,1,4
25469,Halstenbek,53.6246158859,9.83843359862,6,0
24364,Holzdorf,54.5576371672,9.90501822658,1,4
24568,Kaltenkirchen,53.841744414,9.95584794621,8,0
97080,Würzburg,49.8160473527,9.91514705023,5,0
36419,Geisa,50.7044518838,9.9724342324,2,3
74424,Bühlertann,49.0326071713,9.93013635028,2,3
36284,Hohenroda,50.8125077778,9.92476550406,1,4
97070,Würzburg,49.7945094495,9.9350892094,13,0
89197,Weidenstetten,48.5586628664,9.98071039285,1,4
31162,Bad Salzdetfurth,52.0723589076,10.0244188507,8,0
73494,Rosenberg,49.0102523387,10.0300430894,0,5
97656,Oberelsbach,50.4383503556,10.0776375397,1,4
21220,Seevetal,53.3586360617,10.0471685489,7,0
24220,Flintbek,54.2355347246,10.0831411445,3,2
21376,Salzhausen,53.2165710631,10.1413414638,2,3
88451,Dettingen an der Iller,48.107798004,10.1084121225,2,3
31311,Uetze,52.4605993385,10.1699571802,1,4
29221,Celle,52.616888943,10.08238445,11,0
22119,Hamburg,53.556504865,10.1080551899,6,0
89281,Altenstadt,48.1680503523,10.130407359,2,3
87764,Legau,47.8560932437,10.1427004275,0,5
73492,Rainau,48.9206756564,10.1508649317,0,5
24635,Rickling,54.0057053823,10.1956999393,4,1
24245,Kirchbarkau,54.214753848,10.1581142623,0,5
24610,Trappenkamp,54.046980028,10.181429904,3,2
87773,Pleß,48.1024764484,10.1663113704,0,5
87734,Benningen,47.9663543407,10.2173143029,0,5
87785,Winterrieden,48.1198738712,10.2158773868,0,5
91550,Dinkelsbühl,49.0752657737,10.3103761122,8,0
97638,Mellrichstadt,50.3806966161,10.3235683085,7,0
91555,Feuchtwangen,49.175296641,10.3213499729,4,1
97508,Grettstadt,49.9896269121,10.3400081606,1,4
29351,Eldingen,52.6715463942,10.3445090482,1,4
38704,Liebenburg,52.0035458981,10.4093399341,1,4
89446,Ziertheim,48.6613726547,10.3985541689,0,5
22958,Kuddewörde,53.5800853786,10.4076484467,0,5
29553,Bienenbüttel,53.1393934627,10.4839729761,0,5
99947,Bad Langensalza,51.120094827,10.617453156,9,0
22956,Grönwohld,53.6473213403,10.4120237314,0,5
99880,Waltershausen,50.9133377069,10.5366246899,6,0
89407,Dillingen a.d. Donau,48.5748640743,10.5312747604,5,0
87775,Salgen,48.1260523671,10.485117107,0,5
38551,Ribbesbüttel,52.4307428716,10.4971433978,0,5
35644,Hohenahr,50.6692442358,8.49203593305,0,5
33647,Bielefeld,51.9780011447,8.50514138876,8,0
33739,Bielefeld,52.0849761602,8.51817327974,1,4
72175,Dornhan,48.357153661,8.53004801817,0,5
35075,Gladenbach,50.7767942816,8.57905286395,5,0
78083,Dauchingen,48.0931436248,8.54985547091,1,4
72296,Schopfloch,48.4183253117,8.55342556192,0,5
68799,Reilingen,49.2977095604,8.57216977998,3,2
35428,Langgöns,50.4707975253,8.60145461532,4,1
78628,Rottweil,48.1680374974,8.65280720046,6,0
64295,Darmstadt,49.8513172148,8.60803078413,9,0
60439,Frankfurt am Main,50.1629505055,8.6233057515,3,2
72221,Haiterbach,48.5300490014,8.64541896792,2,3
69214,Eppelheim,49.3962683857,8.62606138247,3,2
78591,Durchhausen,48.0384410754,8.66877078428,0,5
72229,Rohrdorf,48.5681977327,8.68623790595,0,5
60314,Frankfurt am Main,50.1146840015,8.72408804741,5,0
64668,Rimbach,49.6194860562,8.76612367939,3,2
78582,Balgheim,48.0735724432,8.77024616868,4,1
64859,Eppertshausen,49.9483646937,8.82908010702,1,4
28199,Bremen,53.0577407419,8.78827062072,7,0
28844,Weyhe,52.988728106,8.85078323674,6,0
78589,Dürbheim,48.0564162393,8.8018581602,2,3
63073,Offenbach am Main,50.0825793218,8.81547150849,2,3
78224,Singen,47.7606924585,8.87034249156,14,0
74915,Waibstadt,49.2944398194,8.90516613297,2,3
78600,Kolbingen,48.0601843945,8.89282174344,0,5
64757,Unter-Hainbrunn,49.4830325113,8.907904271,1,4
34414,Warburg,51.5134865478,9.09230506928,6,0
78345,Moos,47.7116118866,8.93903488018,1,4
74906,Bad Rappenau,49.2392764507,9.06454419865,5,0
63533,Mainhausen,50.010116201,9.0087223203,1,4
78351,Bodman-Ludwigshafen,47.8107792792,9.03574196725,2,3
74372,Sersheim,48.9629388965,9.01506642192,1,4
69439,Zwingenberg,49.4164441925,9.03548658389,0,5
74392,Freudental,49.0090138382,9.05226049751,0,5
70569,Stuttgart,48.745341804,9.09002356655,10,0
74391,Erligheim,49.0178221618,9.08862047171,0,5
78354,Sipplingen,47.7984120387,9.10270123741,0,5
31628,Landesbergen,52.5507616605,9.16258630982,1,4
35327,Ulrichstein,50.5762454771,9.18499011823,1,4
63897,Miltenberg,49.689383143,9.24486807876,8,0
34434,Borgentreich,51.5765197471,9.25584383055,2,3
71634,Ludwigsburg,48.910702461,9.17214350302,4,1
72631,Aichtal,48.6252107047,9.21862897162,1,4
74379,Ingersheim,48.9678275025,9.18376388889,0,5
71691,Freiberg am Neckar,48.9334351368,9.18939410204,3,2
63826,Geiselbach,50.1196876813,9.19471829694,1,4
71642,Ludwigsburg,48.9116393023,9.24761622011,1,4
72658,Bempflingen,48.5756293803,9.27756195806,0,5
24803,Erfde,54.3096087653,9.32709284994,3,2
63875,Mespelbrunn,49.9192652832,9.30069957469,1,4
27356,Rotenburg,53.1627879377,9.32771669819,12,0
71334,Waiblingen,48.8385263637,9.32741871721,5,0
88356,Ostrach,47.9510808107,9.36070188126,3,2
24887,"Silberstedt, Schwittschau",54.5364485377,9.36695407846,2,3
73773,Aichwald,48.7628902603,9.38755420777,2,3
34128,Kassel,51.3397935318,9.42092766462,2,3
37691,"Boffzen, Derental",51.7331523488,9.5069829897,1,4
97900,Külsheim,49.6729615379,9.50739279413,2,3
26180,Rastede,53.2607886882,8.21104953458,4,1
78136,Schonach im Schwarzwald,48.1489459936,8.18003278391,1,4
67169,Kallstadt,49.4898973758,8.17253866368,2,3
59609,Anröchte,51.548961809,8.30916465167,3,2
26969,Butjadingen,53.5518626086,8.33688384137,2,3
65183,Wiesbaden,50.0845865084,8.23740931104,5,0
65185,Wiesbaden,50.0760018521,8.2395654136,6,0
76448,Durmersheim,48.9323165433,8.2889324619,3,2
67587,Wintersheim,49.7791232077,8.29122041071,0,5
78199,Bräunlingen,47.9300038505,8.40052701152,3,2
72250,Freudenstadt,48.4919974133,8.24460297011,14,0
49448,Lemförde u.a.,52.483706874,8.39375494093,2,3
59555,Lippstadt,51.6875612681,8.3384525134,8,0
35688,Dillenburg,50.7418181044,8.36200488195,1,4
78166,Donaueschingen,47.9639132446,8.32174397053,7,0
67373,Dudenhofen,49.3209582522,8.3805846103,4,1
68623,Lampertheim,49.6170051012,8.46914535929,11,0
64589,Stockstadt am Rhein,49.8123177737,8.44510879932,2,3
34323,Malsfeld,51.0811610392,9.50303201101,2,3
27374,Visselhövede,52.992872734,9.55535696711,6,0
34302,Guxhagen,51.1998911777,9.50456953906,2,3
74629,Pfedelbach,49.1534270535,9.53407549071,0,5
25379,"Herzhorn, Kamerlanderdeich",53.7751268918,9.50568613188,0,5
24960,"Glücksburg, Munkbrarup",54.8318544509,9.56701409182,4,1
24999,Wees,54.8073462208,9.53319741887,0,5
73066,Uhingen,48.7216342528,9.5660314046,3,2
34253,Lohfelden,51.2688331922,9.55307842675,3,2
88276,Berg,47.8280242584,9.57698005288,0,5
88214,Ravensburg,47.7413960319,9.60866951739,5,0
21723,Hollern-Twielenfleth,53.5945246255,9.53707242409,3,2
72589,Westerheim,48.5152537611,9.61581898937,1,4
24594,Hohenwestedt,54.0980113104,9.68202045157,3,2
89617,Untermarchtal,48.2417109597,9.61106870693,1,4
24894,"Tolk, Twedt",54.5947725477,9.65621767662,0,5
73105,Dürnau,48.6399851577,9.63463308312,0,5
30455,Hannover,52.3598250195,9.6676309452,3,2
30453,Hannover,52.3710281048,9.68397290323,12,0
66996,"Fischbach, Erfweiler u.a.",49.082644636,7.69486266178,3,2
76887,Bad Bergzabern u.a.,49.1085511748,7.97889017804,5,0
79364,Malterdingen,48.1605335603,7.79431855254,0,5
55424,Münster-Sarmsheim,49.9437357441,7.87985977741,0,5
79106,Freiburg im Breisgau,48.0064228821,7.85419686577,7,0
79117,Freiburg im Breisgau,47.9673328335,7.90143485476,2,3
77656,Offenburg,48.4633415468,7.92245679561,7,0
79674,Todtnau,47.8274213592,7.96107422709,4,1
49076,Osnabrück,52.2887314365,7.97752262966,5,0
76835,Rhodt u.a.,49.2611014651,8.0698779689,3,2
56472,Nisterau u.a.,50.6231397751,7.92965743249,0,5
57072,Siegen,50.8826427364,7.98830841722,13,0
77654,Offenburg,48.4756524061,7.9829011364,4,1
67305,Ramsen,49.5208413286,7.98963069563,0,5
77797,Ohlsbach,48.442144306,8.00221078399,0,5
49124,Georgsmarienhütte,52.2047408272,8.07510582865,15,0
79730,Murg,47.5832750434,8.02325675255,7,0
79859,Schluchsee,47.8134289422,8.16204182253,3,2
56316,Raubach,50.5755421266,7.62762283258,0,5
58762,Altena,51.2846807992,7.68837531783,4,1
79541,Lörrach,47.6370737894,7.69521993801,2,3
56132,Bad Ems Umland,50.2889288711,7.71280258218,0,5
56346,Sankt Goarshausen u.a.,50.1447587631,7.751681097,0,5
48167,Münster,51.9232699475,7.72301370192,2,3
48324,Sendenhorst,51.853454144,7.79060384692,7,0
79356,Eichstetten,48.0967388665,7.73127175283,1,4
59075,Hamm,51.7057147611,7.74778432202,1,4
26169,Friesoythe,53.0075552364,7.84365841927,8,0
67806,"Rockenhausen, Bisterschied u.a.",49.6279708583,7.80889555444,1,4
56410,Montabaur,50.4274559439,7.80578391595,8,0
67724,"Gundersweiler, Gonbach u.a.",49.5448248569,7.90455690525,0,5
79292,Pfaffenweiler,47.9382112894,7.75942384711,0,5
67822,"Winterborn, Waldgrehweiler, Niedermoschel, u.a.",49.7199983343,7.85853438568,0,5
79114,Freiburg im Breisgau,47.9995910843,7.80987646299,2,3
48356,Nordwalde,52.1003544853,7.48550312324,1,4
44137,Dortmund,51.508204533,7.44878217958,13,0
48480,"Lünne, Schapen, Spelle",52.3916575148,7.48049802476,3,2
6128,Halle/ Saale,51.4499543304,11.9442621351,0,5
95182,Döhlau,50.2856625132,11.9645733449,0,5
84056,Rottenburg a.d. Laaber,48.7164185903,12.038480004,6,0
83098,Brannenburg,47.7289441747,12.0699040221,3,2
6712,"Zeitz, Gutenborn u.a.",51.0173736447,12.150177214,0,5
84032,"Landshut, Altdorf",48.5607459472,12.089726872,4,1
8548,Rosenbach,50.553719965,12.0836119407,0,5
7551,Gera,50.8348351589,12.1104470658,0,5
92533,Wernberg-Köblitz,49.5410815632,12.1589892588,5,0
84036,Landshut,48.5244133938,12.198145798,5,0
83569,Vogtareuth,47.931498224,12.1764382958,0,5
95691,Hohenberg a.d. Eger,50.1024390468,12.1880085182,1,4
4523,"Pegau, Elstertrebnitz",51.1891950505,12.2349348601,0,5
95692,Konnersreuth,50.0059451634,12.223888143,0,5
6792,Sandersdorf-Brehna,51.6196482073,12.246826176,0,5
92727,Waldthurn,49.681306836,12.3283656214,0,5
92723,Tännesberg,49.53510963,12.3287486023,0,5
93102,Pfatter,48.9603329129,12.3807650131,0,5
83546,Gars am Inn,48.1760679116,12.3221128175,0,5
14727,Premnitz,52.543673454,12.3690472179,1,4
4575,"Neukieritzsch, Deutzen",51.1510224217,12.4157752489,1,4
92445,Neukirchen-Balbini,49.2902978325,12.4176269897,0,5
8228,Rodewisch,50.5361799611,12.4183519618,0,5
8062,Zwickau,50.6935303701,12.4685032472,0,5
18317,Saal,54.3538214079,12.5286784155,0,5
6772,Gräfenhainichen,51.7262089645,12.3774782488,0,5
83278,Traunstein,47.8796441123,12.6439808048,11,0
94347,Ascha,48.9889655469,12.6232331173,1,4
94357,Konzell,49.073824703,12.7080631876,1,4
83379,Wonneberg,47.9018198994,12.7179230988,0,5
9366,Stollberg/Erzgeb.,50.6957819424,12.7704977013,1,4
17154,Neukalen,53.8225045971,12.779005343,0,5
93477,Gleißenberg,49.3247260474,12.7436840121,0,5
4862,Mockrehna,51.5110712956,12.8310626118,0,5
84533,Marktl,48.2384852231,12.8539267802,1,4
94244,Teisnach,49.0299708099,13.0108279203,3,2
14554,Seddiner See,52.2766762245,13.0021297924,2,3
14109,Berlin Wannsee,52.4197394362,13.1439922748,2,3
94227,Zwiesel,49.0491546276,13.2810910225,4,1
14053,Berlin Westend,52.5153562929,13.2381969243,0,5
94548,Innernzell,48.8484350362,13.2726629812,1,4
14979,Großbeeren,52.3621548522,13.328382704,3,2
12209,Berlin-Lichterfelde,52.4174388465,13.3291871711,0,5
13351,Berlin Wedding,52.5506376181,13.3328445617,3,2
6268,"Querfurt, Obhausen, Mücheln u.a.",51.3484600024,11.6051854733,0,5
85244,Röhrmoos,48.3317643989,11.4582887236,1,4
85256,Vierkirchen,48.3653599069,11.466253141,1,4
81247,München,48.1668423526,11.4677839636,9,0
6295,Eisleben,51.5170384727,11.5627493477,0,5
7387,Krölpa,50.6958233212,11.5191129471,0,5
80639,München,48.1508996764,11.5092215876,8,0
39446,Staßfurt,51.8912850256,11.5409431466,0,5
81371,München,48.1142338838,11.5477622512,6,0
95358,Guttenberg,50.1618376367,11.5697433035,0,5
85301,Schweitenkirchen,48.5146924292,11.6138437799,7,0
80803,München,48.1644692329,11.5802463346,3,2
85376,Neufahrn b. Freising,48.3558985472,11.6397011447,0,5
39108,Magdeburg,52.1326365384,11.6136804368,5,0
81925,München,48.1622023936,11.6223189839,7,0
92278,Illschwang,49.4542143695,11.6964534312,3,2
85540,Haar,48.1180527578,11.7328873444,6,0
6179,Teutschenthal,51.4414354613,11.8165125694,1,4
85452,Moosinning,48.2774508892,11.80793056,1,4
95514,Neustadt a. Kulm,49.8275126032,11.8353185686,0,5
19322,"Wittenberge, Rühstädt",53.0138188872,11.7526310367,4,1
92724,Trabitz,49.7835896583,11.898396258,0,5
95506,Kastl,49.824815103,11.9111887715,0,5
19372,Spornitz,53.3573549205,11.7588965621,0,5
93359,Wildenberg,48.725724851,11.9077607079,0,5
6536,"Südharz, Berga",51.596557905,11.040744107,1,4
39343,"Erxleben, Nordgermersleben u.a.",52.2939708357,11.4987916666,2,3
91365,Weilersbach,49.7511607033,11.1316315575,0,5
19071,Brüsewitz,53.6707257244,11.278323216,0,5
6458,Hedersleben,51.8631737866,11.2826254615,0,5
96332,Pressig,50.3630229455,11.319728565,1,4
6464,Seeland,51.788852471,11.3721212835,0,5
95491,Ahorntal,49.8474284948,11.4414415883,1,4
87648,Aitrang,47.825286617,10.5187312293,0,5
97496,Burgpreppach,50.1339530338,10.6305038275,1,4
24327,Blekendorf,54.2660773483,10.6630239555,0,5
38322,Hedeper,52.0648348,10.6940570858,0,5
86879,Wiedergeltingen,48.0351120001,10.6719808198,0,5
96166,Kirchlauter,50.0410194749,10.7012818454,1,4
23899,Gudow,53.5491407506,10.7734825949,3,2
96145,Seßlach,50.197830801,10.8100649952,3,2
19273,"Amt Neuhaus, Stapel",53.2681419213,10.9525987247,0,5
98669,Veilsdorf,50.4126553386,10.8098767709,1,4
96182,Reckendorf,50.0276834769,10.8325415858,0,5
99338,Arnstadt,50.7733531772,10.8769665354,1,4
86682,Genderkingen,48.7094499591,10.8686885279,0,5
98666,"Biberau, Masserberg",50.5087654377,10.9308291992,2,3
91174,Spalt,49.1763035608,10.917291073,3,2
38895,"Langenstein, Derenburg",51.8634740803,10.9448124065,0,5
86981,Kinsau,47.8786259528,10.904949295,0,5
86929,Penzing,48.0784713419,10.939715919,0,5
96486,Lautertal,50.3433264394,10.9598867863,1,4
90762,Fürth,49.4740260903,10.994061028,15,0
99087,Erfurt,51.0241950684,11.0357326248,4,1
90451,Nürnberg,49.4039629258,11.0467530315,4,1
94133,Röhrnbach,48.7533261393,13.5166386013,3,2
94124,Büchlberg,48.6748285897,13.529336818,1,4
12524,Berlin Altglienicke,52.4127511693,13.5416370197,1,4
17438,Wolgast,54.05599792,13.8087385682,3,2
1157,Dresden,51.0643561198,13.6676786028,0,5
15569,Woltersdorf,52.4493074223,13.7614819028,0,5
1069,Dresden,51.0399084836,13.7368379072,1,4
15378,Rüdersdorf,52.491385575,13.8525048285,0,5
15526,Bad Saarow-Pieskow,52.2720633243,14.0349000197,4,1
17322,"Blankensee, Grambow u.a.",53.5192268527,14.2839829395,0,5
3054,Cottbus,51.8314854697,14.3512956495,0,5
2689,Sohland a. d. Spree,51.0466478504,14.4298411476,0,5
2827,Görlitz,51.1082758608,14.9535390929,0,5
54597,Pronsfeld,50.0885019173,6.42911912543,5,0
54646,Bettingen,49.9457019237,6.38743115102,1,4
52353,Düren,50.8327637036,6.4527509367,3,2
46519,Alpen,51.596550058,6.48874478664,6,0
41516,Grevenbroich,51.1205017621,6.63719725873,2,3
47800,Krefeld,51.3501409806,6.60188919952,4,1
40668,Meerbusch,51.3057362537,6.68695462443,5,0
54295,Trier,49.7470394006,6.65590795934,1,4
50226,Frechen,50.9135840286,6.78413770949,12,0
46348,Raesfeld,51.7663114645,6.83324250566,7,0
40479,Düsseldorf,51.2337103445,6.78050524355,4,1
40477,Düsseldorf,51.2394526653,6.78571134408,5,0
66359,Bous,49.2783474002,6.81722819765,0,5
40235,Düsseldorf,51.2310417977,6.82493056265,3,2
40597,Düsseldorf,51.1651573382,6.87718392153,3,2
50939,Köln,50.9187242111,6.92513332887,4,1
54538,Bausendorf,50.035239655,7.02033760535,1,4
46238,Bottrop,51.5213088717,6.96422222125,6,0
50667,Köln,50.9386556776,6.95506986959,4,1
54424,Thalfang,49.7562453233,7.00513648505,1,4
56826,Lutzerath,50.1266110759,7.00564092464,0,5
54413,Gusenburg,49.6295653647,6.89615284279,1,4
53501,Grafschaft,50.5730177955,7.0827490883,1,4
42549,Velbert,51.3368772978,7.02302527563,15,0
56864,Bad Bertrich,50.0807245947,7.02626179271,0,5
45768,Marl,51.6553818074,7.06080604795,0,5
79258,Hartheim,47.9299892135,7.61880354695,4,1
67752,Wolfstein,49.585125361,7.6137000277,1,4
58511,Lüdenscheid,51.2172736322,7.6494440714,3,2
55422,"Bacharach, Breitscheid",50.0506483454,7.72878592086,1,4
55442,Stromberg,49.9662307391,7.75606604509,4,1
79353,Bahlingen am Kaiserstuhl,48.1205442962,7.73993610756,5,0
67759,Nußbach,49.6364291003,7.70095382029,0,5
58553,Halver,51.1886181087,7.4953801788,4,1
56564,Neuwied,50.4334547126,7.47133370722,8,0
58095,Hagen,51.3649483394,7.49705837717,4,1
55618,Simmertal,49.821570115,7.52529812834,0,5
44328,Dortmund,51.5482482484,7.53558289651,2,3
79415,Bad Bellingen,47.7209570594,7.56459411013,3,2
58119,Hagen,51.3514731089,7.56824278183,5,0
55499,Riesweiler,49.9403946319,7.57602359977,0,5
59368,Werne,51.67836249,7.62620417267,5,0
57638,Neitersen,50.6686233518,7.59061995189,0,5
48369,Saerbeck,52.179437255,7.63818966593,6,0
45289,Essen,51.4199429294,7.11366529022,3,2
66583,Spiesen-Elversberg,49.3128472178,7.15112455121,1,4
53227,Bonn,50.7232144922,7.15679112753,8,0
42109,Wuppertal,51.2766469377,7.14820371497,2,3
44652,Herne,51.5259436767,7.17463584791,3,2
66440,Blieskastel,49.2153723137,7.26376958796,7,0
26721,Emden,53.3832041637,7.20690576352,12,0
66539,Neunkirchen,49.3219215317,7.21958103132,0,5
45663,Recklinghausen,51.5796597319,7.23357041767,2,3
66450,Bexbach,49.3617319405,7.26532800692,2,3
56865,Blankenrath u.a.,50.0387146937,7.28590254566,0,5
44805,Bochum,51.5120290258,7.27808836328,4,1
66909,Herschweiler-Pettersheim,49.4413891245,7.43474356766,3,2
35719,Angelburg,50.8118709167,8.43558846058,0,5
78050,Villingen-Schwenningen,48.0573454177,8.44089327632,2,3
78737,Fluorn-Winzeln,48.2926740461,8.47497559147,0,5
59955,Winterberg,51.2057364796,8.51816049969,18,0
65931,Frankfurt am Main,50.0903279765,8.50241930436,0,5
68753,Waghäusel,49.2309855303,8.53635128924,2,3
35625,Hüttenberg,50.5090635765,8.5639239583,0,5
32130,Enger,52.1387072151,8.55375553218,6,0
68549,Ilvesheim,49.478110944,8.56705418021,2,3
61449,Steinbach (Taunus),50.1707567903,8.57056490745,2,3
27476,Cuxhaven,53.848270221,8.62133712301,6,0
33758,Schloß Holte-Stukenbrock,51.8899140067,8.64831933749,6,0
64404,Bickenbach,49.7615783791,8.59847738457,1,4
76694,Forst,49.1606756703,8.58702376553,11,0
76669,Bad Schönborn,49.2133964012,8.64257556005,7,0
32584,Löhne,52.1991773848,8.72244365717,3,2
75172,Pforzheim,48.8908534889,8.68426211153,5,0
35396,Gießen,50.6146164422,8.7037946708,0,5
27755,Delmenhorst,53.0371232901,8.67017426347,5,0
32832,Augustdorf,51.9013008981,8.75597758009,2,3
21776,Wanna,53.7241504937,8.77935121388,0,5
69251,Gaiberg,49.3636395098,8.7389821807,1,4
33189,Schlangen,51.8366166169,8.82976898296,7,0
78586,Deilingen,48.1697496318,8.78747377766,0,5
64689,Grasellenbach,49.6258489901,8.84310365204,4,1
74931,Lobbach,49.3745658888,8.88402589151,2,3
35287,Amöneburg,50.7730989311,8.92490538456,1,4
71155,Altdorf,48.6083533832,9.00256883463,4,1
25853,Ahrenshöft,54.5892454764,9.06821458851,1,4
63762,Großostheim,49.9157723218,9.06483489515,1,4
25860,Horstedt,54.5284409644,9.08916079087,2,3
34632,Jesberg,50.9914655894,9.12973440592,0,5
63584,Gründau,50.2364461924,9.15417867586,6,0
88662,Überlingen,47.8198543222,9.22563387135,9,0
63939,Wörth a.Main,49.7819433503,9.13973378088,0,5
25873,Rantrum,54.4494197212,9.15462891703,3,2
63739,Aschaffenburg,49.9757085212,9.16479561478,12,0
63688,Gedern,50.4123555982,9.21368556457,5,0
34628,Willingshausen,50.8646180999,9.21391197448,0,5
74376,Gemmrigheim,49.0255402457,9.16786211616,0,5
63589,Linsengericht,50.1682667033,9.21702649429,5,0
70176,Stuttgart,48.7773245293,9.16170036856,5,0
21755,Hechthausen,53.6444335381,9.22095694683,0,5
72762,Reutlingen,48.4826743952,9.2149401,9,0
70629,Stuttgart/Leinfelden-Echterdingen,48.6883940868,9.19923294366,6,0
63849,Leidersbach,49.899579884,9.2396571153,0,5
74076,Heilbronn,49.1584048599,9.22855508645,12,0
34308,Bad Emstal,51.249638118,9.25304770648,5,0
88699,Frickingen,47.8226550689,9.26413238019,2,3
70374,Stuttgart,48.8108510447,9.24101414449,5,0
71686,Remseck am Neckar,48.8774611127,9.2662791876,5,0
21737,Wischhafen,53.7686316323,9.30969649011,1,4
31558,Hagenburg,52.42948394,9.3244742895,2,3
27308,Kirchlinteln,52.9292347003,9.36103493928,1,4
74232,Abstatt,49.0728938233,9.30448534632,2,3
24896,"Treia, Ahrenviölfeld",54.5187028056,9.31619036022,1,4
34317,Habichtswald,51.3277204529,9.33331412544,0,5
71717,Beilstein,49.0566708652,9.34429281919,0,5
72664,Kohlberg,48.5612592609,9.33264555146,0,5
27336,"Rethem (Aller), Häuslingen, Frankenfeld",52.7676995735,9.39112245785,2,3
71409,Schwaikheim,48.874893033,9.35262550562,2,3
21702,Ahlerstedt,53.3918771739,9.43995481387,2,3
88348,"Bad Saulgau, Allmannsweiler",48.0128366361,9.5082081553,7,0
88376,Königseggwald,47.9278783415,9.42728175851,0,5
31637,Rodewald,52.677669878,9.47154525053,1,4
36367,Wartenberg,50.6223771027,9.45533210972,1,4
88374,Hoßkirch,47.9457032528,9.45902556155,0,5
74538,Rosengarten,49.0605467763,9.70733531153,0,5
37217,Witzenhausen,51.3521347576,9.77369441182,0,5
30169,Hannover,52.3640570506,9.7333575693,15,0
89180,Berghülen,48.4642798973,9.77216808055,0,5
97786,Motten,50.3875743341,9.77007990281,0,5
24576,Bad Bramstedt,53.9141059021,9.87443138149,4,1
30916,Isernhagen,52.4566089728,9.85035024282,8,0
24366,Loose,54.5230748631,9.88512077428,0,5
97792,Riedenberg,50.3219284029,9.88496011497,1,4
74426,Bühlerzell,49.0266470171,9.89513136566,0,5
22769,Hamburg,53.5662146412,9.94595352716,8,0
31141,Hildesheim,52.1280312103,9.98914431226,3,2
97243,Bieberehren,49.5080216642,10.0163580936,0,5
24109,Melsdorf,54.317862641,10.0496641379,4,1
22851,Norderstedt,53.6984170025,10.0420899273,7,0
24625,Großharrie,54.130615072,10.0684379354,0,5
73489,Jagstzell,49.0289956045,10.1203230415,1,4
36460,"Krayenberggemeinde, Frauensee",50.848473657,10.1108428413,0,5
21442,Toppenstedt,53.2722497846,10.1017079042,0,5
89518,Heidenheim an der Brenz,48.6855857782,10.1319149845,6,0
22117,Hamburg,53.5482365136,10.1351375059,0,5
89293,Kellmünz a.d. Iller,48.1289887339,10.1367684638,0,5
97654,Bastheim,50.3947003719,10.1781019335,1,4
31246,Lahstedt,52.2441611028,10.2280780613,0,5
24146,Kiel,54.2857825777,10.1900627441,0,5
37197,Hattorf,51.6452589706,10.2440046502,0,5
97456,Dittelbrunn,50.1119323845,10.2058888887,1,4
97532,Üchtelhausen,50.1217242659,10.2839084409,0,5
89312,Günzburg,48.4661717119,10.2802294518,14,0
87761,Lauben,48.0652852066,10.2852661617,0,5
29364,Langlingen,52.5038122285,10.2608255921,0,5
87784,Westerheim,48.023842101,10.2978647059,0,5
23813,Nehms,54.0174976325,10.3332250628,0,5
86489,Deisenhausen,48.2638038472,10.3266900563,0,5
97529,Sulzheim,49.9431746069,10.3440281024,0,5
36448,Bad Liebenstein,50.8291727178,10.3603796943,3,2
22929,"Hamfelde, Kasseburg, Köthel, Rausdorf, Schönberg",53.5908867407,10.3244101803,0,5
99848,Wutha-Farnroda,50.9408812258,10.392571571,2,3
23847,Lasbek,53.7525301614,10.4813153317,0,5
73467,Kirchheim am Ries,48.8810126737,10.4036824842,0,5
89349,Burtenbach,48.3468840358,10.4597083193,0,5
24321,Lütjenburg,54.3144674195,10.5615094713,9,0
87647,Unterthingau,47.7644747578,10.4914228922,0,5
23820,Pronstorf,53.9533866558,10.4965853682,0,5
21379,"Scharnebeck, Echem, Lüdersburg, Rullstorf",53.3044203736,10.5408748271,3,2
99891,Tabarz/ Thür. Wald,50.8639643735,10.5024250754,2,3
87663,Lengenwang,47.6964675233,10.5981755094,0,5
87651,Bidingen,47.8220469812,10.7198464531,0,5
23911,Ziethen,53.7235880287,10.7079796401,1,4
91315,Höchstadt a.d.Aisch,49.714860198,10.8336639259,7,0
38899,Oberharz am Brocken,51.674351568,10.8544399466,1,4
86857,Hurlach,48.1201026391,10.8265996446,1,4
96179,Rattelsdorf,50.0376498986,10.8808608956,2,3
86157,Augsburg,48.3614475786,10.8654734233,0,5
86937,Scheuring,48.1602084919,10.8894252825,1,4
99092,Erfurt,50.9768305484,10.9446804666,5,0
86154,Augsburg,48.3942722054,10.8786844609,3,2
96250,Ebensfeld,50.0638401942,10.9612153205,0,5
96050,Bamberg,49.8812007183,10.9289759666,5,0
86704,Tagmersheim,48.8228015754,10.9639162029,0,5
98746,Katzhütte,50.5265157908,11.0343912758,0,5
99097,Erfurt,50.9272012785,11.0599434973,2,3
99610,Sömmerda,51.155168091,11.1502203867,3,2
67813,"Schwarzengraben, St. Alban, Gerbach",49.68026168,7.87430966229,1,4
79664,Wehr,47.6255263874,7.91509868437,3,2
49504,Lotte,52.3003939953,7.92888100061,8,0
57520,"Emmerzhausen, Niederdreisbach, Steinebach",50.7346163183,7.85290517536,0,5
77652,Offenburg,48.5029601977,7.94229675561,8,0
79737,Herrischried,47.673365942,7.99211514072,2,3
77791,Berghaupten,48.4026735429,7.97632157832,2,3
65307,Bad Schwalbach,50.1344521542,8.04585163073,2,3
79215,"Elzach, Biederbach",48.185618604,8.0832577642,1,4
79297,Winden im Elztal,48.1428982081,8.03975605295,1,4
56479,Oberrod u.a.,50.6155759392,8.07834672969,0,5
76833,Frankweiler,49.2327657179,8.08025887336,2,3
49413,Dinklage,52.6607895388,8.10019370907,6,0
67433,Neustadt an der Weinstraße,49.3546016375,8.15519970954,15,0
76865,Insheim,49.1475221211,8.14962836863,2,3
76768,Berg,48.9823392651,8.20458903181,1,4
76770,Hatzenbühl,49.1157163937,8.23990075905,0,5
26209,Hatten,53.0424980166,8.32165967032,3,2
67256,Weisenheim am Sand,49.4900656679,8.11298329373,0,5
67586,Hillesheim,49.7799552074,8.25240555648,0,5
57334,Bad Laasphe,50.9270879851,8.34768629088,4,1
76761,Rülzheim,49.1524788022,8.28154481675,2,3
35713,Eschenburg,50.8103389189,8.36276398634,1,4
55299,Nackenheim,49.9106029234,8.33327407894,2,3
65239,Hochheim am Main,50.0239006379,8.36850571396,8,0
59558,Lippstadt,51.6858595951,8.41182323415,2,3
67069,Ludwigshafen am Rhein,49.5240003488,8.39342429478,0,5
76332,Bad Herrenalb,48.7965967115,8.44176559368,1,4
24805,Hamdorf,54.2258690015,9.49099382399,0,5
36287,Breitenbach am Herzberg,50.7767746126,9.5006316455,1,4
71560,Sulzbach an der Murr,49.0118782531,9.51105650519,1,4
73669,Lichtenwald,48.7462541857,9.48317809804,0,5
21720,Grünendeich,53.5549162673,9.60366709014,1,4
73035,Göppingen,48.6985113604,9.63417083672,4,1
97277,Neubrunn,49.7222369199,9.66453784422,0,5
24357,Fleckeby u.a.,54.4735662927,9.69343839085,0,5
30855,Langenhagen,52.4702747671,9.69620679992,10,0
7338,Kaulsdorf,50.5824242582,11.4922910277,0,5
82069,Schäftlarn,47.9963106345,11.4387483916,0,5
19055,Schwerin,53.6577808007,11.4344908717,2,3
85107,Baar-Ebenhausen,48.6804719581,11.4732216753,0,5
85053,Ingolstadt,48.7463063408,11.4641213885,8,0
91224,Pommelsbrunn,49.5049547855,11.5258910945,4,1
85092,Kösching,48.8361916851,11.5194447784,2,3
6279,"Schraplau, Farnstädt",51.4322290416,11.601943029,0,5
92268,Etzelwang,49.5346518723,11.5819553044,0,5
85129,Oberdolling,48.8362204094,11.5973340367,0,5
80802,München,48.1592571919,11.5911310533,13,0
81927,München,48.159039191,11.6373981048,2,3
93155,Hemau,49.0453348621,11.764114755,1,4
39291,"Möckern, Schermen, Nedlitz u.a.",52.1958523292,11.9899270498,6,0
7926,Gefell,50.4443153607,11.8260480117,0,5
83629,Weyarn,47.8580582692,11.8149478083,2,3
18249,"Bernitt, Qualitz, Warnow, Zernin u.a.",53.8116867436,11.9058004644,0,5
7629,Hermsdorf,50.8733143054,11.8567883185,0,5
7613,"Crossen, Heideland u.a.",50.9874433425,11.9394613544,0,5
95683,Ebnath,49.9533161048,11.9386623857,2,3
83080,Oberaudorf,47.6636495766,12.1138052417,4,1
16866,"Gumtow, Kyritz u.a.",52.9831189693,12.3232149188,5,0
8523,Plauen,50.4715430893,12.1064354782,1,4
92670,Windischeschenbach,49.8116027424,12.1559576628,9,0
83139,Söchtenau,47.9194172696,12.230620061,1,4
84166,Adlkofen,48.5363483827,12.2823158742,1,4
6842,Dessau-Roßlau,51.7895794436,12.3002644893,0,5
95652,Waldsassen,50.0152045038,12.3155826123,1,4
83093,Bad Endorf,47.9040918281,12.3013113033,3,2
6803,Bitterfeld-Wolfen,51.6505084292,12.2914478633,0,5
6808,Bitterfeld-Wolfen,51.5974476397,12.3329630121,0,5
17214,Nossentiner Hütte,53.5334003853,12.3749067687,1,4
8459,Neukirchen/Pleiße,50.7831459235,12.3866904374,0,5
4277,Leipzig,51.3049689215,12.3709154957,0,5
95698,Neualbenreuth,49.9662045678,12.4249681137,3,2
8262,Muldenhammer,50.4286772036,12.4951838283,0,5
94345,Aholfing,48.9371354711,12.4774336877,0,5
93491,Stamsried,49.2741295474,12.5235483294,0,5
8328,Stützengrün,50.5370600293,12.5557836671,0,5
84160,Frontenhausen,48.5212466636,12.5274288899,0,5
8309,Eibenstock,50.4694421179,12.6100484463,0,5
8396,Waldenburg,50.8835108934,12.584429146,0,5
17192,Waren/ Müritz,53.5066897836,12.7443155924,9,0
4808,Wurzen,51.3884248934,12.8030830651,1,4
16833,Fehrbellin,52.7776054995,12.7814915722,3,2
84553,Halsbach,48.1188638401,12.6829421756,0,5
94522,Wallersdorf,48.7355830078,12.7521596445,0,5
93486,Runding,49.2222253124,12.7569270035,1,4
94559,Niederwinkling,48.8733256159,12.792935633,2,3
8344,Grünhain-Beierfeld,50.5758128027,12.8109407065,0,5
16827,Neuruppin,52.9875226497,12.8663730613,0,5
93479,Grafenwiesen,49.2034578422,12.8795575058,0,5
84387,Julbach,48.2533030342,12.9334038363,0,5
14469,Potsdam,52.4271767167,13.0264734852,9,0
9430,Drebach,50.6875092767,13.0206465849,0,5
9518,Großrückerswalde,50.6209127039,13.1100759916,0,5
18569,Gingst,54.491137353,13.2642734011,4,1
13587,Berlin Hakenfelde,52.5769013888,13.1855954184,4,1
16761,Hennigsdorf,52.6304556948,13.2010964024,3,2
1623,Lommatzsch,51.204460189,13.2945647334,0,5
1589,Riesa,51.2917259611,13.3247041497,0,5
9633,Halsbrücke,50.9631120274,13.389564317,0,5
94104,Tittling,48.7288836756,13.3964824432,2,3
10367,Berlin Lichtenberg,52.5244160178,13.4819237847,5,0
18546,Sassnitz,54.5242540472,13.6148503296,5,0
94143,Grainet,48.7985643985,13.6658706637,1,4
1773,Altenberg,50.7763648733,13.7282064924,0,5
1778,Altenberg,50.765012727,13.8395919165,0,5
17449,Karlshagen,54.1741568003,13.8118849943,4,1
3222,Lübbenau/ Spreewald,51.8489253314,13.9513907037,0,5
15326,"Zeschdorf, Podelzig, Lebus",52.436871698,14.4722994929,0,5
15518,"Briesen, Rauen u.a.",52.3946511103,14.1872411634,0,5
2799,Großschönau,50.8651848369,14.6451322415,0,5
2796,Jonsdorf,50.8534723019,14.689549827,0,5
82362,Weilheim i. OB,47.8443435074,11.1460589931,8,0
90409,Nürnberg,49.4669596049,11.0903264543,2,3
90478,Nürnberg,49.4397496696,11.1046894332,3,2
82279,Eching a. Ammersee,48.0806112553,11.1167331044,0,5
39387,Oschersleben (Bode),52.0297908921,11.2641557697,5,0
85128,Nassenfels,48.8054478335,11.2216677434,0,5
39345,"Haldensleben, Flechtingen, Bülstringen u.a.",52.3369580043,11.387161306,0,5
85116,Egweil,48.7871911045,11.2246811441,0,5
85254,Sulzemoos,48.2863622736,11.2592773051,1,4
85259,Sulzemoos,48.2984765667,11.2320022855,0,5
85253,Erdweg,48.3327263231,11.2832771771,0,5
99628,"Buttstädt, Großbrembach, Kleinbrembach",51.1331605343,11.376678116,0,5
96369,Weißenbrunn,50.1907391687,11.3541681838,0,5
6456,Arnstein,51.6730646455,11.4475816777,0,5
6542,Allstedt,51.5358733102,11.3574810264,0,5
29471,Gartow,53.0113123119,11.4362036736,0,5
82377,Penzberg,47.7610471512,11.3812610524,8,0
85113,Böhmfeld,48.8699120616,11.3700947137,0,5
82057,Icking,47.9476126949,11.4238443782,2,3
85095,Denkendorf,48.9275938405,11.4693775804,1,4
82064,Straßlach-Dingharting,48.0141528015,11.5359314591,2,3
7368,Remptendorf,50.5367430853,11.5997054585,0,5
7745,Jena,50.904797819,11.562422206,0,5
92275,Hirschbach,49.574424901,11.5857631761,0,5
95447,Bayreuth,49.9264565586,11.5582391515,5,0
95463,Bindlach,49.9961339261,11.6022951676,2,3
92363,Breitenbrunn,49.0917449181,11.6323310829,0,5
81667,München,48.1306380833,11.599341581,8,0
95138,Bad Steben,50.3579920726,11.6362716891,0,5
6429,Nienburg (Saale),51.8623663085,11.6809440174,0,5
39218,Schönebeck,52.0171423938,11.7370135823,3,2
95482,Gefrees,50.0940721426,11.7327737879,1,4
95197,Schauenstein,50.2763424094,11.7420897103,0,5
85399,Hallbergmoos,48.3104732863,11.7297424276,5,0
39240,"Calbe, Rosenburg u.a.",51.8991773396,11.8562306646,1,4
93354,Siegenburg,48.7584908102,11.8498842425,0,5
95030,Hof,50.3155213605,11.8692319083,2,3
6126,Halle/ Saale,51.4785968007,11.8964199779,0,5
6578,Bilzingsleben Kannawurf Oldisleben,51.2995656764,11.1290219615,0,5
23769,Fehmarn,54.4652377343,11.1484520371,9,0
82436,Eglfing,47.7379981339,11.157081851,0,5
19209,Lützow,53.6291852365,11.1804023148,1,4
82438,Eschenlohe,47.5857620837,11.1975896632,2,3
90602,Pyrbaum,49.2892961385,11.2707521432,0,5
96142,Hollfeld,49.9374713047,11.281730373,2,3
90607,Rückersdorf,49.506073914,11.2413198233,4,1
39619,Arendsee,52.8487923612,11.45095364,3,2
92353,Postbauer-Heng,49.2898595723,11.3544464298,1,4
29475,Gorleben,53.038141235,11.370752647,0,5
76889,Klingenmünster u.a.,49.0854991978,7.98433933045,9,0
79686,Hasel,47.663707063,7.89511468614,0,5
56457,Westerburg,50.5668193802,7.96668093907,0,5
26345,Bockhorn,53.378653399,8.01223993806,2,3
55576,Sprendlingen,49.8616201521,7.98169764799,3,2
77781,Biberach,48.3322283645,8.01086754258,2,3
59494,Soest,51.565636689,8.08596882487,21,0
55286,Wörrstadt,49.8391785104,8.10727765194,3,2
76547,Sinzheim,48.7608395578,8.14380134571,0,5
55262,Heidesheim am Rhein,50.0028086263,8.12451856415,3,2
88339,Bad Waldsee,47.9179817911,9.7494302165,7,0
29614,Soltau,52.9958091516,9.85670057763,11,0
24794,Borgstedt,54.3539061475,9.72693473158,1,4
22559,Hamburg,53.5875792341,9.76096941593,2,3
37181,Hardegsen,51.6519658438,9.80369929856,3,2
30161,Hannover,52.3769319678,9.74796961893,7,0
36167,Nüsttal,50.6481385372,9.8554820621,0,5
74532,Ilshofen,49.1658353658,9.91251165552,1,4
21274,Undeloh,53.2078870465,9.92393600811,0,5
31199,Diekholzen,52.0923324225,9.9449600458,2,3
74586,Frankenhardt,49.0773289403,9.99572336085,0,5
88430,Rot an der Rot,47.9914628809,10.0031661735,2,3
37085,Göttingen,51.5388333008,9.94818054847,6,0
21227,Bendestorf,53.3352334768,9.97467321729,0,5
22767,Hamburg,53.5501561157,9.9469500917,32,0
22041,Hamburg,53.5755056504,10.0788951093,9,0
74597,Stimpfach,49.1016456651,10.167231026,1,4
89287,Bellenberg,48.2584525241,10.0965193657,0,5
97340,Marktbreit,49.6386880812,10.1425306443,3,2
97320,Albertshofen,49.7705515775,10.1365805704,3,2
29339,Wathlingen,52.5253525795,10.1441849435,1,4
36433,Bad Salzungen,50.8312492572,10.2504906809,5,0
97332,Volkach,49.8633575102,10.2413986818,6,0
21394,"Kirchgellersen, Westergellersen, Südergellersen",53.2229074238,10.2765709006,3,2
87727,Babenhausen,48.1386452756,10.2467276938,0,5
29355,Beedenbostel,52.6534830918,10.2565093297,0,5
87770,Oberschönegg,48.1141612048,10.3100859155,0,5
38229,Salzgitter,52.1225551833,10.3600280939,12,0
87490,Haldenwang,47.7910628417,10.3588112533,0,5
89331,Burgau,48.4288613312,10.3831534276,3,2
38542,Leiferde,52.4486002619,10.4350608938,0,5
87778,Stetten,48.0098355859,10.4340052627,0,5
86513,Ursberg,48.2469023028,10.442642814,0,5
87772,Pfaffenhausen,48.1227486513,10.4447568318,2,3
89353,Glött,48.5013660795,10.4880350246,0,5
86753,Möttingen,48.8097444598,10.5874890288,1,4
23701,"Eutin, Süsel",54.112182367,10.650212665,10,0
86850,Fischach,48.2832619214,10.6509245413,2,3
86872,Scherstetten,48.1904864319,10.6455183825,0,5
99994,Schlotheim,51.2437157578,10.6635836685,0,5
87679,Westendorf,47.9246362776,10.7074792648,0,5
86975,Bernbeuren,47.7297124121,10.7678197038,0,5
91802,Meinheim,49.0257472927,10.8035677209,1,4
23570,Lübeck,53.9454236206,10.8770947756,7,0
86447,Aindling,48.5118594782,10.9503775559,2,3
86508,Rehling,48.4845705463,10.9174419015,0,5
23774,Heiligenhafen,54.3675162937,10.9731121628,7,0
38820,Halberstadt,51.888965236,11.0420491595,8,0
91054,Erlangen,49.6028061034,11.0260946504,9,0
34134,Kassel,51.2821147238,9.46498324552,1,4
25377,"Kollmar, Pagensand",53.6901927575,9.51635283121,0,5
73266,Bissingen an der Teck,48.5803854504,9.50362389904,0,5
88046,Friedrichshafen,47.6627622819,9.50410265404,7,0
71577,Großerlach,49.045402918,9.55080615834,0,5
37170,Uslar,51.5693002118,9.64572060822,3,2
88074,Meckenbeuren,47.6991942585,9.56495808696,4,1
24884,"Selk, Geltdorf, Hahnekrug",54.4664028629,9.59599075141,0,5
25370,Seester,53.7202464257,9.60931327324,2,3
24966,Sörup,54.7240689044,9.66099925124,3,2
88149,Nonnenhorn,47.5768232563,9.61492028414,2,3
36166,Haunetal,50.7645284588,9.67195689162,0,5
73104,Börtlingen,48.7595386811,9.63547825319,0,5
47624,Kevelaer-Twisteden,51.5512606922,6.19889923674,0,5
54649,Waxweiler,50.0851142451,6.37434701498,2,3
50189,Elsdorf,50.9318330484,6.56232863079,1,4
54309,Newel,49.8097732118,6.60396660437,0,5
66740,Saarlouis,49.3111121465,6.74750208448,12,0
54518,"Niersbach, Sehlem, Plein u.a.",49.9412460068,6.83074294514,2,3
54317,"Osburg, Gusterath, Farschweiler, Kasel u.a.",49.7616241728,6.73439670244,2,3
40474,Düsseldorf,51.2750808056,6.74871300587,17,0
47058,Duisburg,51.4404513616,6.79558207918,1,4
54528,Salmtal,49.9285612363,6.84428626926,0,5
45478,Mülheim an der Ruhr,51.4317822689,6.83380029025,3,2
48683,Ahaus,52.0978097768,6.96297149828,23,0
54498,Piesport,49.8645240001,6.93103900785,1,4
45468,Mülheim an der Ruhr,51.4278903544,6.88614734166,10,0
66571,Eppelborn,49.4021695879,6.97924877686,1,4
45896,Gelsenkirchen,51.6064395411,7.02982027856,1,4
42719,Solingen,51.1875320994,7.04138197187,6,0
66132,Saarbrücken,49.2254374549,7.07833975257,0,5
79400,Kandern,47.7036786157,7.65407191485,2,3
44289,Dortmund,51.4863854396,7.58955591301,3,2
55497,"Ellern (Hunsrück), Schnorbach",49.983167777,7.63328924142,1,4
58509,Lüdenscheid,51.2197506193,7.60531165802,7,0
51580,Reichshof,50.9572707236,7.68746441025,3,2
56329,Sankt Goar,50.145101694,7.67971473764,3,2
79189,Bad Krozingen,47.9208754633,7.68083107381,3,2
49549,Ladbergen,52.1308345432,7.76249197701,2,3
67731,Otterbach,49.4880866069,7.7352959468,2,3
76891,Bruchweiler-Bärenbach u.a.,49.0897770019,7.82953068239,1,4
67657,Kaiserslautern,49.4514487,7.81310350363,9,0
56427,Siershahn,50.4843801185,7.77383918556,0,5
44229,Dortmund,51.4553278463,7.46131958419,0,5
56332,"Lehmen, Niederfell, Oberfell, Wolken u.a.",50.2510773751,7.45391414738,2,3
51570,Windeck,50.7932004824,7.57257849519,5,0
55621,Hundsbach,49.7204466611,7.56241378841,0,5
65510,"Hünstetten, Idstein",50.2329327331,8.25026237929,9,0
55126,Mainz,49.9842453752,8.16835325849,2,3
35753,Greifenstein,50.5946643974,8.25677051763,0,5
78132,Hornberg,48.2022585742,8.25031738566,0,5
49377,Vechta,52.7415027668,8.28549538652,16,0
65187,Wiesbaden,50.0593378589,8.23533624645,3,2
67591,Offstein,49.6089231579,8.23394626359,2,3
55118,Mainz,50.0111147008,8.25672678296,6,0
49457,Drebber,52.675021575,8.41279242246,0,5
33332,Gütersloh,51.8963201023,8.39713739933,3,2
66871,Pfeffelbach,49.5152922143,7.43281705531,1,4
53547,"Breitscheid, Dattenberg, Hausen, Hümmerich, Kasbach-Ohlenberg, Roßbach u.a.",50.5887850317,7.27122004814,1,4
58285,Gevelsberg,51.3335458067,7.34020766277,6,0
55481,Kirchberg u.a.,49.948035638,7.39527776637,3,2
58453,Witten,51.4302087416,7.37145951003,4,1
26579,Baltrum,53.7274826621,7.40158535127,0,5
51399,Burscheid,51.0871775689,7.11624500093,4,1
56862,Pünderich,50.0374465408,7.12228294174,2,3
44879,Bochum,51.4299493213,7.15822267201,3,2
49716,Meppen,52.7030595059,7.28613481686,15,0
54483,Kleinich,49.8905785128,7.17703141083,0,5
44867,Bochum,51.4659551516,7.13636121738,2,3
53721,Siegburg,50.8052828793,7.23770486404,17,0
85447,Fraunberg,48.3605162766,12.0018079817,0,5
95185,Gattendorf,50.328184918,11.9909519455,0,5
84107,Weihmichl,48.6191932363,12.020820284,0,5
92681,Erbendorf,49.8383427943,12.0427354536,1,4
95680,Bad Alexandersbad,50.0120480821,12.0288304658,0,5
84435,Lengdorf,48.2605736296,12.0467218746,1,4
18106,Rostock,54.1283285891,12.0604857485,2,3
6231,Bad Dürrenberg,51.2843129489,12.0955878614,0,5
84405,Dorfen,48.2802020089,12.1657453929,8,0
18057,Rostock,54.0885849194,12.104829975,6,0
16845,Neustadt (Dosse) u.a.,52.8495085576,12.4526556713,0,5
84066,Mallersdorf-Pfaffenberg,48.7725737518,12.2222638488,2,3
92442,Wackersdorf,49.3145564389,12.1911857571,1,4
83556,Griesstätt,47.9899886049,12.1897988188,0,5
6779,Raguhn-Jeßnitz,51.7368684457,12.2582130207,0,5
92439,Bodenwöhr,49.2955587662,12.2871010088,1,4
92685,Floß,49.7256887693,12.2778088236,3,2
8261,Schöneck/Vogtl.,50.390504004,12.3312420545,0,5
84189,Wurmsham,48.3525080212,12.3257368163,0,5
93192,Wald,49.1284124252,12.3516254512,0,5
4317,Leipzig,51.3305139549,12.4039195334,0,5
4318,Leipzig,51.340614994,12.4260014101,0,5
4316,Leipzig,51.3262238619,12.4670165596,0,5
8289,Schneeberg,50.5925503261,12.6205663735,0,5
18314,Löbnitz,54.3156012718,12.7017298705,0,5
6905,Bad Schmiedeberg,51.7031682641,12.7254346904,0,5
9337,"Callenberg, Hohenstein-Ernstthal, Bernsdorf",50.8216127946,12.6789349585,0,5
6888,Wittenberg,51.844997486,12.589668308,0,5
18465,Tribsees,54.1124330448,12.7806355505,0,5
9247,Röhrsdorf,50.8617048405,12.8352355476,0,5
94574,Wallerfing,48.6868572577,12.8775458168,0,5
93471,Arnbruck,49.1363011324,12.9886648795,1,4
84371,Triftern,48.3888488791,13.0044533618,0,5
18445,Prohn,54.3742026322,12.9845647175,0,5
9669,Frankenberg,50.9124864757,13.0747614782,1,4
94209,Regen,48.9699372575,13.1223244132,8,0
14558,Nuthetal,52.2506875971,13.1130917599,0,5
4916,Herzberg/ Elster,51.737940836,13.2199903473,0,5
9434,Zschopau,50.7360766231,13.105332039,0,5
9509,Pockau-Lengefeld (Pockau),50.7062789043,13.2491195453,0,5
16556,Borgsdorf,52.7161366375,13.2674187068,3,2
16559,Liebenwalde,52.8600361021,13.3990688685,0,5
16562,Hohen Neuendorf OT Bergfelde,52.6818733052,13.3230955226,0,5
12203,Berlin Lichtenfelde,52.4441457916,13.3098510004,7,0
16567,Mühlenbecker Land,52.6658272381,13.3618797591,2,3
12167,Berlin Steglitz,52.4485774575,13.33377884,1,4
10715,Berlin Wilhelmsdorf,52.4824627988,13.3288922939,6,0
10827,Berlin,52.4838283784,13.3543151227,5,0
17489,Greifswald,54.0844023511,13.3742045292,5,0
61462,Königstein im Taunus,50.1925891179,8.46181026847,7,0
76139,Karlsruhe,49.0306502049,8.45139730556,2,3
76646,Bruchsal,49.1036673497,8.60025435669,24,0
33605,Bielefeld,51.9978183894,8.57740013386,6,0
33609,Bielefeld,52.0426841829,8.57803205641,4,1
27478,Cuxhaven,53.8050490097,8.72978939249,3,2
27753,Delmenhorst,53.0543922976,8.61146400571,3,2
75236,Kämpfelbach,48.9339466515,8.62769317136,2,3
75387,Neubulach,48.6610339687,8.67429545113,2,3
33813,Oerlinghausen,51.9479462677,8.67573572755,3,2
60487,Frankfurt am Main,50.1273837762,8.64019340809,2,3
72224,Ebhausen,48.6049769273,8.67630261424,5,0
75378,Bad Liebenzell,48.7729251552,8.73448401917,1,4
75239,Eisingen,48.9444590973,8.6763132049,0,5
32049,Herford,52.1356048334,8.70801148978,1,4
69488,Birkenau,49.5653544696,8.72364820999,2,3
35037,Marburg,50.8027557981,8.75164042494,7,0
35039,Marburg,50.8107728719,8.78116752554,6,0
61194,Niddatal,50.2826258488,8.83527954026,2,3
27252,Schwaförden,52.7397733837,8.83994791739,0,5
75059,Zaisenhausen,49.1077838896,8.811390774,4,1
69257,Wiesenbach,49.3630209542,8.82574244259,0,5
61203,Reichelsheim (Wetterau),50.3536247436,8.86085992986,1,4
61137,Schöneck,50.2069320414,8.84353608904,2,3
28213,Bremen,53.0973065476,8.84181674668,2,3
25832,Tönning,54.3078172572,8.88853898028,4,1
78598,Königsheim,48.0981979856,8.8644327346,0,5
75428,Illingen,48.9773990332,8.90839274241,3,2
74343,Sachsenheim,49.000130061,9.00353627985,3,2
71665,Vaihingen an der Enz,48.9473118766,8.96560221273,5,0
74193,Schwaigern,49.1385096754,9.03000429312,6,0
28879,Grasberg,53.1809354858,9.01056789477,3,2
32694,Dörentrup,52.0338323172,9.03246066476,2,3
31737,Rinteln,52.175427524,9.11154274,17,0
63654,Büdingen,50.2915838159,9.1087518242,5,0
27404,"Zeven, Elsdorf",53.2869156244,9.28855222927,8,0
78479,Reichenau,47.7210587961,9.10968478247,3,2
25884,Viöl,54.5833323613,9.16572105513,1,4
88634,Herdwangen-Schönach,47.8681141257,9.1902296135,2,3
36326,Antrifttal,50.7947856804,9.19034217698,1,4
70192,Stuttgart,48.7960774076,9.16334003852,3,2
31717,Nordsehl,52.3595896003,9.1783090682,0,5
37696,Marienmünster,51.8234798549,9.23232455536,4,1
70174,Stuttgart,48.7828904725,9.17025256942,19,0
70599,Stuttgart,48.7122830072,9.20438816804,11,0
74842,Billigheim,49.3446123846,9.24788641565,0,5
70376,Stuttgart,48.8161332679,9.20335356451,10,0
74385,Pleidelsheim,48.9589159924,9.21131536314,1,4
34560,Fritzlar,51.1433481542,9.26132034271,7,0
63877,Sailauf,50.0369684145,9.26606167827,1,4
70734,Fellbach,48.8002397546,9.28426497266,2,3
88512,Mengen,47.9925132061,9.30232593141,3,2
34590,Wabern,51.093781068,9.35604791676,1,4
36341,Lauterbach,50.6439908068,9.37613742717,5,0
63874,Dammbach,49.8649682601,9.34342119883,1,4
88709,Meersburg,47.7088047089,9.27950763492,4,1
88090,Immenstaad am Bodensee,47.674047324,9.36408929063,5,0
72532,Gomadingen,48.3874877074,9.40045049614,0,5
74182,Obersulm,49.1319526928,9.38753048563,0,5
73776,Altbach,48.7260228414,9.38026922797,2,3
34132,Kassel,51.2851297405,9.41534175018,0,5
72525,Münsingen,48.4043695702,9.52415445439,7,0
13059,Berlin Wartenberg,52.5808595567,13.5216896688,0,5
13057,Berlin Falkenberg,52.5716426616,13.5417322499,0,5
4928,"Plessa, Schraden",51.4626050015,13.6382175196,0,5
1097,Dresden,51.0668156027,13.7412926873,1,4
1326,Dresden,51.0260863011,13.8575635148,0,5
15344,Strausberg,52.5666744401,13.9004408885,11,0
15913,Straupitz,51.9911223614,14.0938513637,1,4
3099,Kolkwitz,51.7542294795,14.1990791004,1,4
17375,"Vogelsang-Warsin, Meiersberg, Mönkebude u.a.",53.6940985049,13.995310683,2,3
3055,Cottbus,51.813523737,14.3090505005,0,5
49406,"Barnstorf, Eydelstedt, Drentwede",52.70213107,8.54466290273,4,1
78664,Eschbronn,48.1914019366,8.45069744977,0,5
35216,Biedenkopf,50.921694169,8.53280732535,8,0
32257,Bünde,52.2067588595,8.56532636333,13,0
68239,Mannheim,49.4587445792,8.55557755317,1,4
33689,Bielefeld,51.9439254475,8.58856808164,9,0
35633,Lahnau,50.5900925576,8.56608519139,0,5
78652,Deißlingen,48.1097942919,8.59992135658,4,1
64625,Bensheim,49.6930301571,8.62373301808,28,0
32120,Hiddenhausen,52.1557747773,8.63567099355,3,2
78647,Trossingen,48.0745612471,8.63966296198,2,3
75053,Gondelsheim,49.0565228003,8.6443942982,3,2
61169,Friedberg (Hessen),50.3271891083,8.75033338466,8,0
60323,Frankfurt am Main,50.1246784822,8.66377057311,3,2
76684,Östringen,49.1898413202,8.75224429658,4,1
61231,Bad Nauheim,50.375459247,8.74903050851,10,0
78559,Gosheim,48.1360856102,8.76292852765,0,5
35463,Fernwald,50.5622912937,8.77769387256,1,4
27726,Worpswede,53.251366356,8.94639347254,2,3
75447,Sternenfels,49.034688273,8.86259879291,1,4
71116,Gärtringen,48.6399989751,8.89794719089,5,0
78269,Volkertshausen,47.823181047,8.86787299249,0,5
78603,Renquishausen,48.0847646478,8.89198383095,0,5
25852,Bordelum,54.6444768839,8.92120555361,2,3
32805,Horn-Bad Meinberg,51.8702606896,8.96913819769,6,0
64753,Brombachtal,49.7333758551,8.9456281396,2,3
88637,"Leibertingen, Buchheim",48.0300864565,9.02139608574,0,5
78333,Stockach,47.8556503689,9.01642008118,3,2
72070,Tübingen,48.5219756335,9.00606127462,4,1
31621,Pennigsehl,52.6356120643,9.01691811582,0,5
72072,Tübingen,48.4914278153,9.04364029862,22,0
35329,Gemünden (Felda),50.6866749912,9.08904521616,0,5
72393,Burladingen,48.3143098102,9.11848794434,1,4
72074,Tübingen,48.5603594148,9.08275899642,6,0
63594,Hasselroth,50.164278066,9.10460385386,0,5
31711,Luhden,52.2276938692,9.0871901883,0,5
31608,Marklohe,52.662267084,9.13703116164,2,3
74855,Haßmersheim,49.3021238009,9.11948662961,0,5
74838,Limbach,49.4689471814,9.19608394962,0,5
72141,Walddorfhäslach,48.5907006067,9.16585208597,1,4
70199,Stuttgart,48.757585772,9.14625278502,4,1
63820,Elsenfeld,49.8337634266,9.2014278399,1,4
31632,Husum,52.5718612076,9.25645760859,0,5
74223,Flein,49.0996314094,9.22626274329,5,0
71726,Benningen am Neckar,48.9413610088,9.23689441956,0,5
21729,Freiburg (Elbe),53.8273972172,9.28101365637,0,5
63916,Amorbach,49.6419320209,9.17717248074,1,4
36355,Grebenhain,50.4953583936,9.33897910101,3,2
72516,Scheer,48.0836689511,9.31697566364,1,4
74219,Möckmühl,49.324836222,9.35522960958,1,4
71336,Waiblingen,48.8757407413,9.32454859525,3,2
24869,Dörpstedt,54.4323738465,9.35544248329,0,5
74248,Ellhofen,49.144629766,9.32084259582,0,5
63831,"Wiesen, Wiesener Forst",50.1087417008,9.3548452124,0,5
88636,Illmensee,47.8602265498,9.36915950519,0,5
31785,Hameln,52.1047856149,9.36311486056,10,0
74239,Hardthausen am Kocher,49.2654432968,9.3914319749,0,5
72534,Hayingen,48.295135936,9.47139876372,3,2
24799,"Meggerdorf, Friedrichsholm, Friedrichsgraben u.a.",54.3337971413,9.40388071186,0,5
99996,"Menteroda, Obermehler",51.2889584723,10.5903912983,0,5
37441,Bad Sachsa,51.5861592075,10.541831119,5,0
38527,Meine,52.3769638639,10.5702861972,0,5
98554,Benshausen,50.6417362867,10.5999548458,0,5
91623,Sachsen b. Ansbach,49.2860784141,10.6542924608,0,5
38329,Wittmar,52.1297436678,10.6441850049,0,5
